stop_id,out_degree,stop_name,stop_lat,stop_lon
LTFRB_1784,13,"Quezon Bridge, Manila",14.5952,120.981
LTFRB_1794,12,"Ramon Magsaysay Blvd, Manila",14.6012,120.999
LTFRB_1742,11,"Epifanio de los Santos Avenue, Lungsod ng Pasay",14.5376,121.0
LTFRB_1522,11,"España Blvd / Nicanor Reyes St Intersection, Manila",14.6056,120.988
LTFRB_1259,11,"Epifanio de los Santos Avenue, Quezon City",14.6536,121.032
LTFRB_1714,10,"Senator Gil Puyat Ave, Makati City",14.5549,121.0
LTFRB_842,10,"Commonwealth Avenue / IBP Road Intersection, Quezon City",14.6997,121.087
LTFRB_1712,10,"Senator Gil Puyat Ave, Lungsod ng Pasay, Manila",14.5529,120.992
LTFRB_1645,10,"Taft Ave, Manila",14.5908,120.981
LTFRB_2622,9,"South Luzon Expressway / Montillano St Intersection, Muntinlupa City, Manila",14.4194,121.046
LTFRB_1677,9,"President Quirino Ave / Taft Ave Intersection, Manila",14.5703445188,120.9919166565
LTFRB_1419,9,"Ferdinand Blumentritt / Aurora Boulevard Intersection, Quezon City",14.6253,120.987
LTFRB_1511,9,"Quezon Blvd / P.Paredes Intersection, Manila",14.6073,120.986
LTFRB_2904,9,"South Luzon Expressway, Taguig City, Manila",14.5071,121.035
LTFRB_2301,9,"Roxas Blvd / Redemptorist Road Intersection, Parañaque City, Manila",14.532,120.993
LTFRB_4974,9,Ayala MRT,14.5492,121.028
LTFRB_1660,9,T.M. Kalaw / Maria Y. Orosa St,14.582,120.981
LTFRB_1699,8,"Rizal Memorial Track and Football Stadium, M Adriatico, Manila",14.5631,120.991
LTFRB_2897,8,"DBP Ave, Taguig City, Manila, Manila",14.5058,121.038
LTFRB_1468,8,"Camarines, Manila",14.6181,120.984
LTFRB_1676,8,"Taft Ave, Manila",14.5742,120.989
LTFRB_1525,8,"Claro M. Recto Ave / Quezon Blvd Intersection, Manila",14.6031,120.985
LTFRB_1440,8,"Light Rail Transportation / New Antipolo, Quezon City",14.6226,120.983
LTFRB_1644,8,"Padre Burgos St, Manila",14.5938,120.979
LTFRB_1620,8,"Jones Bridge / Riverside Dr Intersection, Manila",14.5953,120.978
LTFRB_617,8,"Ramirez / Quirino Highway, Caloocan City",14.7219,121.04
LTFRB_1621,8,"McArthur Bridge , Manila",14.5959,120.98
LTFRB_2882,7,"South Luzon Expressway, Muntinlupa City, Manila",14.4582,121.045
LTFRB_3172,7,"Sheridan / United Street, Mandaluyong City, Manila",14.5765,121.056
LTFRB_2358,7,"NAIA Rd, Parañaque City, Manila",14.516,121.003
LTFRB_3185,7,"Meralco Ave, Pasig City, Manila",14.5815,121.064
LTFRB_1243,7,"Epifanio de los Santos Avenue / Bulacan Intersection, Quezon City",14.6556,121.029
LTFRB_1140,7,"North Luzon Expressway / Epifanio de los Santos Avenue Intersection, Caloocan City",14.6573,121.0
LTFRB_1925,7,"Antonio Arnaiz Ave / P.Zamora Intersection, Manila",14.5481,121.001
LTFRB_4484,7,"Maria Y. Orosa St, Manila",14.5832,120.981
LTFRB_1499,7,"Instruccion / Espana Boulevard Intersection, Manila",14.615,120.999
LTFRB_1769,7,"Mendiola / Legarda Intersection, Manila",14.6003,120.991
LTFRB_1139,7,"North Luzon Expressway near Bonifacio Memorial Elementary School, Caloocan City",14.6591,121.0
LTFRB_2906,7,"South Luzon Expressway, Taguig City, Manila",14.5161,121.03
LTFRB_2186,7,"Aurora Blvd / 20th Avenue, Quezon City, Manila",14.6265,121.06
LTFRB_1521,7,"España Blvd / Quezon Blvd  Intersection, Manila",14.6048,120.985
LTFRB_1713,7,"Senator Gil Puyat Ave, Lungsod ng Pasay, Manila",14.5536,120.996
LTFRB_2907,7,"South Luzon Expressway, Taguig City, Manila",14.5203,121.028
LTFRB_1822,7,"Ramon Magsaysay Blvd / Altura Intersection, Manila",14.6023,121.01
LTFRB_1778,7,"Quezon Blvd, Manila",14.5974,120.984
LTFRB_2913,7,"South Luzon Expressway, Makati City, Manila",14.5382,121.018
LTFRB_1239,7,"Epifanio de los Santos Avenue near Walter Mart Service Road, Quezon City",14.6574,121.022
LTFRB_1844,7,Valenzuela Extension / Victorio Mapa Blvd,14.5977,121.018
LTFRB_2340,7,"NAIA Rd / Quirino Ave Intersection, Parañaque City, Manila",14.5172,120.996
LTFRB_1736,7,"Epifanio de los Santos Avenue / F.B. Harrison St Intersection, Lungsod ng Pasay",14.5379,120.996
LTFRB_1361,7,"Quezon Avenue, Quezon City",14.6211673113,121.0052204132
LTFRB_1970,7,"Makati Ave / Ayala Avenue Intersection, Makati City, Manila",14.5548,121.024
LTFRB_328,7,"3th Avenue West, Caloocan City",14.6417,120.983
LTFRB_988,7,"Commonwealth Avenue, Quezon City",14.6939,121.087
LTFRB_2058,7,"Boni Ave / Epifanio de los Santos Avenue Intersection, Mandaluyong City, Manila",14.5725,121.047
LTFRB_1439,7,"Old Antipolo / Felix Huetas Intersection, Quezon City",14.6223,120.985
LTFRB_2246,7,"Kalayaan Ave / Elliptical Rd Intersection, Quezon City, Manila",14.6487,121.051
LTFRB_1005,7,"Social Science Institute, Commonwealth Avenue, Quezon City",14.6605,121.063
LTFRB_2329,7,"Taft Avenue Extension / Epifanio de los Santos Avenue, Lungsod ng Pasay, Manila",14.5369,121.0
LTFRB_835,7,"Total Fairview, Commonwealth Avenue, Quezon City",14.708,121.063
LTFRB_1156,7,"Epifanio de los Santos Avenue / General Rosendo Simon Intersection , Caloocan City",14.6572,120.986
LTFRB_1261,7,"Epifanio de los Santos Avenue / Trinoma Access Road, Quezon City",14.6505,121.034
LTFRB_1551,7,"Claro M. Recto Ave / Jose Abad Santos Ave. Intersection, Manila",14.6061,120.975
LTFRB_101,7,"Bonifacio Market, MacArthur Highway, Caloocan City",14.6576,120.984
LTFRB_1743,7,"Taft Ave, Lungsod ng Pasay",14.5397,121.0
LTFRB_1899,7,"President Quirino Ave / Angel Linao Intersection, Manila",14.5745,120.995
LTFRB_1452,7,"T. Mapua / Laguna Intersection, Quezon City",14.6219,120.982
LTFRB_2250,6,"East Ave, Quezon City, Manila",14.6399,121.047
LTFRB_4243,6,"MRT-3 Buendia Station, Makati City, Manila",14.5539,121.034
LTFRB_1654,6,"Traft Avenue, Maila",14.5816,120.985
LTFRB_1614,6,"Rizal Avenue, Manila",14.6015,120.982
LTFRB_2911,6,"South Luzon Expressway, Makati City, Manila",14.5328,121.021
LTFRB_71,6,"Inglesia Ni Cristo, MacArthur Highway, Dalandanan, Valenzuela City",14.7013,120.962
LTFRB_2909,6,"South Luzon Expressway, Makati City, Manila",14.527,121.024
LTFRB_1230,6,"Congressional Avenue, Quezon City",14.6645,121.025
LTFRB_1641,6,"Padre Burgos /  Taft Ave Intersection St, Manila",14.5882,120.981
LTFRB_1077,6,"SM Hypermarket, North Avenue, Quezon City",14.6548,121.034
LTFRB_1651,6,"Ayala Blvd / Taft Avenue Intersection, Manila",14.5861,120.983
LTFRB_3786,6,"J. Chanyungco St / Mayor Gil Fernando Ave Intersection, Marikina City, Manila",14.6328,121.101
LTFRB_1802,6,"Arsenio H. Lacson Ave / J. Fajardo Intersection, Manila",14.6076,120.995
LTFRB_4343,6,"5th Ave West / A Del Mundo St, Caloocan City, Manila",14.6446,120.982
LTFRB_4344,6,"5th Ave West / Maria Clara St, Caloocan City, Manila",14.6444,120.985
LTFRB_1622,6,"Padre Burgos St, Manila",14.5938,120.98
LTFRB_361,6,"Caloocan Dental Clinic, Circumference Road 3, Caloocan City",14.645,120.973
LTFRB_2887,6,"South Luzon Expressway, Taguig City, Manila",14.4768,121.045
LTFRB_839,6,"Commonwealth Avenue / Winston Intersection, Quezon City",14.7052,121.078
LTFRB_830,6,"Mindanao Avenue / Belfast Intersection, Quezon City",14.7268,121.058
LTFRB_2888,6,"South Luzon Expressway, Taguig City, Manila",14.4804,121.045
LTFRB_2395,6,"Dr A. Santos Ave, Parañaque City, Manila",14.454,121.045
LTFRB_2883,6,"South Luzon Expressway, Muntinlupa City, Manila",14.4613,121.045
LTFRB_1231,6,"Congressional Avenue, Quezon City",14.6677,121.034
LTFRB_1301,6,"Del Monte Avenue / A. Bonifacio Intersection, Quezon City",14.6374,120.994
LTFRB_1737,6,"Epifanio de los Santos Avenue, Lungsod ng Pasay",14.5373,120.993
LTFRB_1470,6,"Light Rail Transportation 1, Manila",14.6211,120.983
LTFRB_1696,6,"Taft Avenue, Manila",14.5651,120.994
LTFRB_1952,6,"Epifanio de los Santos Avenue / Skyway , Lungsod ng Makati, Manila",14.5405,121.017
LTFRB_1367,6,"Systems Technology Institute, Quezon Avenue, Quezon City",14.6292,121.014
LTFRB_1369,6,"Hayundai, Quezon Avenue, Quezon City",14.6318,121.017
LTFRB_522,6,"Captain F. Samano, Caloocan City",14.7618,121.045
LTFRB_1739,6,"Epifanio de los Santos Avenue, Lungsod ng Pasay",14.5357,120.986
LTFRB_2055,6,"Epifanio de los Santos Avenue /  Shaw Blvd Intersection, Mandaluyong City, Manila",14.5811,121.054
LTFRB_3280,6,"Ortigas Ave, Pasig City, Manila",14.5888,121.066
LTFRB_1973,6,"Ayala Ave, Makati City, Manila",14.5583,121.019
LTFRB_985,6,"Batasan Road / Commonwealth Avenue Intersection, Quezon City",14.6868,121.087
LTFRB_1974,6,"Ayala Ave, Makati City, Manila",14.5597,121.017
LTFRB_1381,6,"Fisher Mall, Quezon Avenue, Quezon City",14.6337,121.02
LTFRB_2621,6,"Alabang-South Station Ramp, Muntinlupa City, Manila",14.4231,121.045
LTFRB_1730,6,"Taft Ave, Lungsod ng Pasay",14.5551,120.997
LTFRB_1418,6,"Dimasalang / Aurora Boulevard Intersection, Quezon City",14.6239,120.989
LTFRB_1984,6,"Epifanio de los Santos Avenue / Senator Gil Puyat Ave, Makati City, Manila",14.555,121.035
LTFRB_1392,6,"Quezon Avenue / West 6th Intersection, Quezon City",14.6382,121.028
LTFRB_1992,6,"Epifanio de los Santos Avenue, Makati City, Manila",14.5671,121.046
LTFRB_1400,6,"Childrens Medical Center, Quezon Avenue, Quezon City",14.6471,121.042
LTFRB_2096,6,"Aurora Blvd / Epifanio de los Santos Avenue Intersection, Quezon City, Manila",14.6214,121.05
LTFRB_1010,6,"Philippine Coconut Authority, Commonwealth Avenue, Quezon City",14.6536,121.053
LTFRB_3816,6,"Guerilla / Lazaro St Intersection, Marikina City, Manila",14.6379,121.097
LTFRB_731,6,"Quirino Highway, Quezon City",14.7206,121.04
LTFRB_1930,6,"Senator Gil Puyat Ave, Makati City",14.5571,121.006
LTFRB_1540,6,"Rizal Avenue, Manila",14.6101,120.982
LTFRB_1235,6,"Epifanio de los Santos Avenue / Congressional Avenue Intersection, Quezon City",14.6576,121.02
LTFRB_3006,6,"A. Luna St / Caruncho Ave Intersection, Pasig City, Manila",14.5608,121.077
LTFRB_1933,6,"Senator Gil Puyat Ave, Makati City",14.5603,121.013
LTFRB_551,6,"Quirino Highway / Maligaya Intersection, Caloocan City",14.7353,121.059
LTFRB_4489,6,"Padre Burgos St / Taft Ave, Manila",14.5904,120.981
LTFRB_1311,6,"Andreas Bonifacio / Sgt. Emilio Rivera ntersection, Quezon City",14.6438,120.994
LTFRB_1929,6,"Senator Gil Puyat Ave / Washington Intersection, Makati City",14.5588,121.01
LTFRB_1768,6,"Senator Gil Puyat Ave, Lungsod ng Pasay, Manila",14.5523,120.99
LTFRB_1496,6,"Halcon / Espana Boulevard Intersection, Manila",14.6169,121.001
LTFRB_1659,5,"Leon Guinto Sr. / G. Apacible Inreesection, Manila",14.5788,120.988
LTFRB_1227,5,"Town and Country Gardenville, Congressional Avenue, Quezon City",14.6665,121.032
LTFRB_2688,5,"Alvarez Extension, Las Piñas City, Manila",14.4188,120.997
LTFRB_1703,5,"HP Village Square, Pablo Ocampo Sr., Manila",14.5602,120.99
LTFRB_1653,5,"Taft Ave / Padre Faura Intersection, Manila",14.5799,120.986
LTFRB_1640,5,"Padre Burgos St, Manila",14.586,120.98
LTFRB_643,5,"Bagabaguin Road / North Luzon Expressway Intersection, Caloocan City",14.7085,120.993
LTFRB_2615,5,"South Luzon Expressway / Concepcion St, Muntinlupa City, Manila",14.445,121.045
LTFRB_1652,5,"Taft Ave / T.M. Kalaw Intersection, Manila",14.5836,120.984
LTFRB_400,5,"Wet Market, Juan Luma, Manila",14.6081,120.969
LTFRB_272,5,"Samson Road / Buklod Ng Nayon Intersection, Malabon City",14.6586,120.968
LTFRB_384,5,"Moriones / Sta. Maria Intersection, Manila",14.6101,120.967
LTFRB_1642,5,"Taft Ave, Manila",14.5921,120.98
LTFRB_3784,5,"Shoe Ave, Marikina City, Manila",14.6349,121.097
LTFRB_264,5,"Areneta Square Mall, Samson Road, Caloocan City",14.6571,120.984
LTFRB_2757,5,"National Hwy / Halang Rd, Biñan City, Manila",14.3394,121.072
LTFRB_3792,5,"Sumulong Hwy, Marikina City, Manila",14.6358,121.096
LTFRB_2640,5,"Yellow Station, South Station Complex Spectrum Midway Extension,  Muntinlupa City, Manila",14.4205,121.042
LTFRB_1655,5,"Taft Ave / Josefa Llanes Escoda Intersection, Manila",14.5773,120.988
LTFRB_2707,5,"Civic Dr, Muntinlupa City, Manila",14.416,121.044
LTFRB_1694,5,"Taft Avenue / Pablo Ocampo Sreet, Avenue, Manila",14.563,120.996
LTFRB_3869,5,"Pheonix Sun Business Park, Quezon City, Manila",14.6146,121.075
LTFRB_383,5,"Moriones / Masinop Intersection, Manila",14.6097,120.963
LTFRB_3111,5,"Kalayaan Ave, Makati City, Manila",14.5619,121.055
LTFRB_1628,5,"Bonifacio Drive, Manila",14.59,120.971
LTFRB_280,5,"Malabon City Square, Circimferential Road 4, Malabon City",14.6576,120.962
LTFRB_732,5,"The Church of Jesus Christ of Latter Day Saints, Sarmiento, Quezon City",14.7197,121.041
LTFRB_3090,5,"7th Ave / McKinley Pkwy Intersection, Taguig City, Manila",14.5469,121.048
LTFRB_3093,5,"26th Street / McKinley Pkwy Intersection, Taguig City, Manila",14.5475,121.054
LTFRB_1480,5,"Lacson Avenue / Alfonso Mendoza Intersection, Manila",14.6161,120.987
LTFRB_148,5,"Simbahanng Church, Osmena Street, Obando",14.7098,120.937
LTFRB_1478,5,"Dimaslang, Manila",14.6162,120.989
LTFRB_1477,5,"Dimaslang, Manila",14.6176,120.989
LTFRB_3372,5,"W Bank Rd / Ortigas Ave Intersection, Pasig City, Manila",14.5901,121.092
LTFRB_986,5,"Commonwealth Avenue, Quezon City",14.689,121.087
LTFRB_1463,5,"Tomas Mapua / Batangas Intersection, Manila",14.6206,120.982
LTFRB_3132,5,"Dr Jose P. Rizal Extension, Makati City, Manila",14.5678,121.047
LTFRB_3335,5,"Manila East Rd / Baytown Intersection, Angono, Manila",14.5347,121.151
LTFRB_3153,5,"Dr Jose P. Rizal Extension / 10th Ave Intersection, Makati City, Manila",14.5552,121.065
LTFRB_3167,5,"Shaw College, Shaw Blvd, Manila",14.5763,121.06
LTFRB_3169,5,"Shaw Blvd, Mandaluyong City, Manila",14.5794,121.056
LTFRB_1437,5,"Dimasalang Birdge / New Antipolo Intersection, Quezon City",14.6207,120.989
LTFRB_327,5,"2th Avenue West, Teodoro, Caloocan City",14.6404,120.983
LTFRB_3173,5,"Shaw Blvd, Pasig City, Manila",14.5737,121.062
LTFRB_1430,5,"Light Rail Transit Line / Bulacan Intersection, Quezon City",14.6268,120.983
LTFRB_1429,5,"Cavite, Quezon City",14.6242,120.983
LTFRB_1427,5,"Cavitie / Leonor Rivera Intersection, Quezon City",14.6242,120.987
LTFRB_3177,5,"Rizal Medical Centre, Pasig Blvd, Pasig City, Manila",14.5646,121.07
LTFRB_1383,5,"Quezon Avenue, Quezon City",14.6358,121.024
LTFRB_3182,5,"San Miguel Ave, Pasig City, Manila",14.5817,121.06
LTFRB_1395,5,"Quezon Avenue, Quezon City",14.6417,121.033
LTFRB_76,5,"Parish Church or Isidro Labarador, MacArthur Highway, Malinta, Valenzuela City",14.6956,120.964
LTFRB_1409,5,"Andres Bonifacio near Manila North Cemetary, Quezon City",14.6355,120.993
LTFRB_3192,5,"E.Abello / Ortigas Ave Intersection, Pasig City, Manila",14.5904,121.062
LTFRB_3199,5,"Ortigas Ave, Pasig City, Manila",14.5895,121.076
LTFRB_1509,5,"Alfonso Mendoza, Manila",14.6119,120.986
LTFRB_1517,5,"P. Noval / España Blvd Intersection, Manila",14.6067,120.989
LTFRB_1519,5,"España Blvd / Arsenio H. Lacson Ave  Intersection, Manila",14.6097,120.993
LTFRB_2892,5,"South Luzon Expressway, Taguig City, Manila",14.4923,121.043
LTFRB_791,5,"Quirino Highway, Quezon City",14.7353,121.062
LTFRB_1241,5,"Phoenix, Epifanio de los Santos Avenue, Quezon City",14.6565,121.026
LTFRB_282,5,"Circimferential Road 4 / Gen. P. Borromro, Malabon City",14.6553,120.957
LTFRB_1613,5,"A F. Torres / Ronquillo Intersection, Manila",14.6003,120.981
LTFRB_3733,5,"Amang Rodriguez Ave, Pasig City, Manila",14.6173,121.093
LTFRB_285,5,"Circimferential Road 4, Malabon City",14.6525,120.95
LTFRB_1608,5,"Dasmariñas / Juan Luna Intersection, Manila",14.5971,120.975
LTFRB_2858,5,"National Hwy, San Pedro, Manila",14.3656,121.052
LTFRB_1260,5,"Epifanio de los Santos Avenue, Quezon City",14.6522,121.032
LTFRB_2881,5,"National Hwy, Muntinlupa City, Manila",14.4143,121.046
LTFRB_96,5,"MacArthur Highway / Del Monte Intersection, Malabon City",14.6677,120.982
LTFRB_2889,5,"South Luzon Expressway, Parañaque City, Manila",14.4833,121.045
LTFRB_2891,5,"South Luzon Expressway, Taguig City, Manila",14.4882,121.045
LTFRB_2896,5,"E Service Rd, Parañaque City, Manila",14.5041,121.037
LTFRB_1524,5,"Claro M. Recto Ave / Nicanor Reyes Street Intersection, Manila",14.6022,120.987
LTFRB_1721,5,"Leveriza, Lungsod ng Pasay",14.5524,120.995
LTFRB_1573,5,"Valariano Fugoso, Manila",14.606,120.982
LTFRB_1572,5,"Valariano Fugoso, Manila",14.6077,120.982
LTFRB_2908,5,"South Luzon Expressway, Taguig City, Manila",14.5238,121.026
LTFRB_784,5,"Quirino Highway, Calcoocan City",14.7427,121.078
LTFRB_3535,5,"Ortigas Avenue Extension, Antipolo City, Manila",14.5867,121.156
LTFRB_3532,5,"Ortigas Avenue Extension, Antipolo City, Manila",14.5867,121.161
LTFRB_1300,5,"Del Monte Avenue / San Jose D Tuazon Intersection, Quezon City",14.6378,120.996
LTFRB_3527,5,"Ortigas Avenue Extension, Antipolo City, Manila",14.5875,121.168
LTFRB_1538,5,"Jose R. Reyes Memorial Medical Center, Rizal Avenue, Manila",14.6137,120.983
LTFRB_3034,5,"Ortigas Ave / Dr Sixto Antonio Ave Intersection, Pasig City, Manila",14.5905,121.085
LTFRB_1529,5,"Oroquieta / Mayhaligue Intersection, Manila",14.6087,120.983
LTFRB_1526,5,"LRT Doroteo Jose-Recto Station Walkway / Rizal Avenue Intersection, Manila",14.6037,120.983
LTFRB_260,5,"P. Bonifacio Street / Caimito Road Intersection,  Malabon City",14.6588,120.981
LTFRB_1402,5,"Quezon Avenue (North Triangle), Quezon City",14.6489,121.045
LTFRB_1014,5,"Elliptical Rd / North Avenue Intersection, Quezon City",14.6514,121.047
LTFRB_2084,5,"Eulogio Rodriguez Sr. Ave / Hillcrest Intersection, Quezon City, Manila",14.6247,121.042
LTFRB_4301,5,"National Highway / Unnamed Rd, San Pedro, Manila",14.3483,121.065
LTFRB_2300,5,"Roxas Blvd, Parañaque City, Manila",14.5346,120.993
LTFRB_2095,5,"Aurora Blvd / N Domingo Intersection, Quezon City, Manila",14.6198,121.046
LTFRB_623,5,"Genteral Luis / Pasacola Road Intersection, Caloocan City",14.7218,121.033
LTFRB_625,5,"Genteral Luis / East Street Intersection, Caloocan City",14.7211,121.03
LTFRB_628,5,"Genteral Luis / Katipunan Extension Intersection, Caloocan City",14.7194,121.022
LTFRB_4508,5,"Rizal Ave / 8th Ave West, Caloocan City, Manila",14.6488,120.984
LTFRB_2085,5,"Eulogio Rodriguez Sr. Ave, Quezon City, Manila",14.6235,121.045
LTFRB_2334,5,"Quirino Ave / T. Claudio Intersection, Parañaque City, Manila",14.5261,120.997
LTFRB_1935,5,"Don Chino Roces Avenue / Pryce Center, Makati City",14.5626,121.011
LTFRB_1116,5,"North Luzon Expressway, Valenzuela City",14.7069,120.994
LTFRB_1117,5,"North Luzon Expressway / Santiago Street Intersection, Valenzuela City",14.7049,120.995
LTFRB_1950,5,"Epifanio de los Santos Avenue, Lungsod ng Makati, Manila",14.539,121.012
LTFRB_1796,5,"Jollibee Figueras Legarda / Bustillos Intersection, Manila",14.6017,120.993
LTFRB_1795,5,"Ramon Magsaysay Blvd, Manila",14.6008,120.995
LTFRB_2405,5,"Quirino Ave, Parañaque City, Manila",14.4919,120.988
LTFRB_1001,5,"Loyola Memorial Chapel, Commonwealth Avenue, Quezon City",14.6658,121.071
LTFRB_4237,5,"MRT-3 Magallanes Station, EDSA, Makati City, Manila",14.5419,121.019
LTFRB_4500,5,"Kamuning Rd / L. Siangio, Quezon City, Manila",14.6274,121.034
LTFRB_1934,5,"Ayala Ave / Senator Gil Puyat Ave Intersection, Makati City",14.5613,121.016
LTFRB_1773,5,"P. Casal, Manila",14.5933,120.988
LTFRB_2125,5,"New York Ave, Quezon City, Manila",14.6273,121.052
LTFRB_2169,5,"15th Ave / P. Tuazon Blvd, Quezon City, Manila",14.62,121.06
LTFRB_1900,5,"South Luzon Expressway, Manila",14.5726,121.0
LTFRB_2177,5,"Aurora Blvd, Quezon City, Manila",14.6248,121.057
LTFRB_1903,5,"Gen M Malvar, Manila",14.5758,120.991
LTFRB_1062,5,"Mindanao Avenue, Quezon City",14.6792,121.032
LTFRB_1878,5,Angel Linao / Pedro Gil,14.5782,120.993
LTFRB_2206,5,"Asian College of Science and Technology, Aurora Blvd, Quezon City, Manila",14.6292,121.069
LTFRB_566,5,"Zabarte Road / Quirino Highway Intersection, Caloocan City",14.7316,121.049
LTFRB_2120,5,"Kamias Rd / Maliksi St Intersection, Quezon City, Manila",14.6319,121.05
LTFRB_2108,5,Tomas Morato Ave / Marathon,14.6281,121.034
LTFRB_2119,5,"Kamias Rd / Colonel Salgado Intersection, Quezon City, Manila",14.6311,121.047
LTFRB_1921,5,"A. Arnaiz Ave / Batangas, Manila",14.5503,121.008
LTFRB_837,5,"Commonwealth Avenue, Quezon City",14.7065,121.07
LTFRB_1864,5,"New Panaderos / Castañeda Intersection, Manila",14.5874,121.021
LTFRB_2112,5,"Judge Damien Jimenez, Quezon City, Manila",14.6263,121.039
LTFRB_2111,5,"Judge Damien Jimenez / Kamuning Rd, Quezon City, Manila",14.6286,121.039
LTFRB_4487,5,"Juan Luna Monument, Padre Burgos St / General Luna St, Manila",14.5853,120.979
LTFRB_1846,5,"Internet Cafe, Old Sta. Mesa, Manila",14.6011,121.013
LTFRB_2057,5,"Epifanio de los Santos Avenue, Mandaluyong City, Manila",14.5762,121.05
LTFRB_4435,5,"Monte de Piedad St / Sgt. J. Catolos, Quezon City, Manila",14.6229,121.049
LTFRB_1975,5,"Senator Gil Puyat Ave, Makati City, Manila",14.5619,121.02
LTFRB_515,5,"National Mental Hospital, Barugo, Caloocan City",14.7676,121.044
LTFRB_1983,5,"Senator Gil Puyat Ave, Makati City, Manila",14.5576,121.033
LTFRB_1987,5,"Kalayaan Flyover, Makati City, Manila",14.5568,121.037
LTFRB_1761,5,"Epifanio de los Santos Avenue, Lungsod ng Pasay",14.5382,121.005
LTFRB_2038,5,"Shaw Blvd / Acacia Ln Intersection, Mandaluyong City, Manila",14.5894,121.035
LTFRB_4195,5,"Robinsons Nova Supermarket, Quirino Highway, Caloocan City, Manila",14.7356,121.058
LTFRB_1981,5,"Epifanio de los Santos Avenue / McKinley Rd Intersection, Makati City, Manila",14.5503,121.029
LTFRB_2022,5,"Dr Jose P. Rizal Ave, Makati City, Manila",14.568,121.044
LTFRB_1744,5,"Taft Ave, Lungsod ng Pasay",14.5427,121.0
LTFRB_1735,5,"F.B. Harrison St / Ignacio, Lungsod ng Pasay",14.5395,120.995
LTFRB_495,5,"Sto. Nino Parish, Old Zabarte, Caloocan City",14.7751,121.045
LTFRB_1163,5,"5th Street / 10th Avenue, Caloocan City",14.6514,120.988
LTFRB_2003,5,"Nicanor Garcia / Kalayaan Ave Intersection, Makati City, Manila",14.5667,121.024
LTFRB_4198,5,"Epifanio de los Santos Av, Quezon City, Manila",14.6453,121.037
LTFRB_2037,5,"L. Gonzales / F. Ortigas, Mandaluyong City, Manila",14.587,121.035
LTFRB_1151,5,"Epifanio de los Santos Avenue, Caloocan City",14.6573,120.998
LTFRB_1771,5,"Legarda, Manila",14.5977,120.99
LTFRB_1738,5,"Epifanio de los Santos Avenue, Diosdado Macapagal Blvd, Lungsod ng Pasay",14.5366,120.99
LTFRB_1510,4,"Alfonso Mendoza, Manila",14.6097,120.986
LTFRB_2124,4,"K-H, Quezon City, Manila",14.6297,121.051
LTFRB_3191,4,"Ortigas Ave, Pasig City, Manila",14.5891,121.064
LTFRB_1988,4,"Estrella Flyover, Makati City, Manila",14.5585,121.039
LTFRB_3170,4,"Mayflower, Mandaluyong City, Manila",14.5775,121.053
LTFRB_3062,4,"Carlos P. Garcia Ave, Taguig City, Manila",14.5391,121.057
LTFRB_1922,4,"A. Arnaiz Ave, Makati City",14.5511,121.01
LTFRB_2140,4,"Mayor Ignacio Santos Diaz / N.Domingo Intersection, San Juan, Manila",14.6177,121.045
LTFRB_3190,4,"Elbow Room, Meralco Ave, Pasig City, Manila",14.5871,121.064
LTFRB_2116,4,"Epifanio de los Santos Avenue / East Avenue Intersection, Quezon City, Manila",14.6329,121.045
LTFRB_1508,4,"San Lazaro / Alfonso Mendoza Intersection, Manila",14.6141,120.986
LTFRB_1507,4,"Daptian / Arsenio H. Lacson Ave Intersection, Manila",14.613,120.99
LTFRB_3065,4,"Carlos P. Garcia Ave, Taguig City, Manila",14.5454,121.054
LTFRB_213,4,"Rizal Avenue / Leono Street Intersection, Malabon City",14.6582,120.952
LTFRB_2146,4,"Santolan Rd, San Juan, Manila",14.6062,121.038
LTFRB_199,4,"Don Bastilio Bautista Boulevard / Gov. W. Pascual Avenue, Malabon City",14.6697,120.947
LTFRB_3011,4,"A. Mabini St, Pasig City, Manila",14.5616,121.077
LTFRB_2943,4,"Lawton Ave, Taguig City, Manila",14.5253,121.027
LTFRB_2170,4,"P. Tuazon Blvd / 9th Ave Intersection, Quezon City, Manila",14.6179,121.056
LTFRB_996,4,"Commonwealth Avenue, Quezon City",14.6731,121.08
LTFRB_2167,4,"13th Ave / P. Tuazon Blvd, Quezon City, Manila",14.6192,121.058
LTFRB_1549,4,"Teodora Alonzo / Claro M. Recto Ave Intersection, Manila",14.6044,120.979
LTFRB_78,4,"Malinta Elementary School, MacArthur Highway, Malinta, Valenzuela City",14.6925,120.965
LTFRB_2995,4,"J.P. Rizal Extension / Lanzones Intersection, Pateros, Manila",14.5461,121.065
LTFRB_2163,4,"15th Ave / Col. Bonny Serrano Intersection, Quezon City, Manila",14.6127,121.063
LTFRB_1995,4,"A. Reyes Ave / J.P. Rizal Ave Intersection, Makati City, Manila",14.5719,121.016
LTFRB_2160,4,"Col. Bonny Serrano, Quezon City, Manila",14.6109,121.055
LTFRB_2144,4,"Fountain International School, Santolan Rd, San Juan, Manila",14.6049,121.033
LTFRB_216,4,"San Iidefonso, M. Naval, City of Navotas",14.655,120.949
LTFRB_3014,4,"A. Mabini St, Pasig City, Manila",14.5648,121.076
LTFRB_1534,4,"Quiricada / Felix Huertas Intersection, Manila",14.613,120.984
LTFRB_2015,4,"J.P. Rizal Ave / A. Mabini Intersection, Makati City, Manila",14.5676,121.032
LTFRB_3020,4,"Dr Sixto Antonio Ave / Pasig Boulevard Extension Intersection , Pasig City, Manila",14.566,121.076
LTFRB_2159,4,"Santolan Rd, Quezon City, Manila",14.61,121.052
LTFRB_2151,4,"Ortigas Ave, San Juan, Manila",14.5997,121.05
LTFRB_1502,4,"Ramon Magsaysay High School, Espana Boulevard, Manila",14.6108,120.994
LTFRB_993,4,"Our Lady of Mercy School, 14.680409, 121.084434",14.6804,121.084
LTFRB_3066,4,"Carlos P. Garcia Ave, Taguig City, Manila",14.5469,121.056
LTFRB_311,4,"DPWH, A. Del Mundo Street / 4th Avenue West Intersection, Caloocan City",14.6432,120.982
LTFRB_3070,4,"Kalayaan Ave / Carlos P. Garcia Ave, Makati City, Manila",14.556,121.063
LTFRB_1971,4,"Paseo de Roxas / Ayala Avenue Intersection, Makati City, Manila",14.5568,121.021
LTFRB_3138,4,"Lawton Ave near Kalayaan Ave Intersection , Makati City, Manila",14.5629,121.054
LTFRB_89,4,"Bread of Life, MacArthur Highway, Valenzuela City",14.6815,120.979
LTFRB_1977,4,"Senator Gil Puyat Ave / Makati Avenue Intersection, Makati City, Manila",14.5615,121.028
LTFRB_1976,4,"Senator Gil Puyat Ave, Makati City, Manila",14.5622,121.025
LTFRB_1451,4,"T. Mapua / New Antipolo Intersection, Quezon City",14.623,120.982
LTFRB_1949,4,"Epifanio de los Santos Avenue, Lungsod ng Makati, Manila",14.5385,121.008
LTFRB_1444,4,"Rizal Avenue / Mt Samat Intersection, Quezon City",14.6311,120.981
LTFRB_2039,4,"M. Yulo / Shaw Blvd Intersection, Mandaluyong City, Manila",14.5906,121.034
LTFRB_1951,4,"Epifanio de los Santos Avenue, Lungsod ng Makati, Manila",14.5396,121.015
LTFRB_1979,4,"Ayala Ave, Makati City, Manila",14.553,121.027
LTFRB_1441,4,"Ferdinand Blumentritt / Felix Huertas Intersection, Quezon City",14.6237,120.985
LTFRB_2075,4,"Gregorio Araneta Ave / Eulogio Rodriguez Sr Ave Intersection, Quezon City, Manila",14.6188,121.015
LTFRB_2072,4,"D. Tuazon / Eulogio Rodriguez Sr Ave Intersection, Manila",14.618,121.005
LTFRB_3168,4,"Shaw Blvd, Shaw Blvd, Manila",14.5779,121.058
LTFRB_2068,4,"E Zobel, Manila",14.57,121.029
LTFRB_2041,4,"Shaw Blvd, Mandaluyong City, Manila",14.5934,121.028
LTFRB_2059,4,"Boni Ave near Pulog Intersection, Mandaluyong City, Manila",14.5737,121.045
LTFRB_2048,4,"Boni Ave / A.T. Reyes Intersection, Mandaluyong City, Manila",14.5859,121.026
LTFRB_1459,4,"Jose Abad Santos Avenue / Tayuman Road, Quezon City",14.6168,120.977
LTFRB_1462,4,"Tomas Mapua / Camarines Intersection, Manila",14.6182,120.982
LTFRB_1413,4,"Andres Bonifacio / Iba Intersection, Quezon City",14.6277,120.99
LTFRB_3184,4,"Meralco Avenue Flyover / Doña Julia Vargas Ave Intersection, Pasig City, Manila",14.5844,121.064
LTFRB_2110,4,"Teodoro Gener / Kamuning Rd, Quezon City, Manila",14.628,121.036
LTFRB_98,4,"Potrero Heights Elementary School, MacArthur Highway, Malabon City",14.663,120.984
LTFRB_2050,4,"Shaw Blvd / Luna Mencias Intersection, Mandaluyong City, Manila",14.5895,121.038
LTFRB_3110,4,"Kalayaan Ave, Makati City, Manila",14.5625,121.052
LTFRB_3120,4,"Every Nation, 32nd Street, Taguig City, Manila",14.5514,121.057
LTFRB_2104,4,"Timog Ave / Scout Santiago Intersection, Quezon City, Manila",14.6363,121.029
LTFRB_1414,4,"Andres Bonifacio / Ferdinand Blumentritt Intersection, Quezon City",14.626,120.99
LTFRB_3125,4,"Nuestra Sra. De Guadalupe, Makati City, Manila",14.5599,121.046
LTFRB_1471,4,"Light Rail Transportation 1, Manila",14.6185,120.983
LTFRB_2934,4,"Andrews Ave, Lungsod ng Pasay, Manila",14.5188,121.017
LTFRB_2034,4,"Boni Ave / Primo Cruz Intersection, Mandaluyong City, Manila",14.5813,121.029
LTFRB_3181,4,"San Miguel Ave, Pasig City, Manila",14.5801,121.059
LTFRB_991,4,"Commonwealth Avenue / Llang-Llang, Quezon City",14.685,121.086
LTFRB_147,4,"Catanghalan Chapel, Kapitan Viilila, Obando, Valenzuela City",14.7052,120.941
LTFRB_2091,4,"LRT-2 Gilmore Station, Aurora Blvd, Quezon City, Manila",14.6135,121.034
LTFRB_209,4,"St James Academy, Gen. Luna St., Malabon City",14.659,120.952
LTFRB_990,4,"Commonwealth Avenue, Quezon City",14.6982,121.087
LTFRB_3131,4,"Epifanio de los Santos Avenue, Makati City, Manila",14.5669,121.046
LTFRB_808,4,"Regalado Highway / Sforza Intersection, Quezon City",14.7245,121.061
LTFRB_219,4,"Governor Pascual, City of Navotas",14.6557,120.947
LTFRB_2175,4,"General Romulo Ave / Aurora Blvd Intersection, Quezon City, Manila",14.6239,121.055
LTFRB_80,4,"Flying V Gas, MacArthur Highway, Valenzuela City",14.6928,120.969
LTFRB_2708,4,Corporate Ave / Filinvest Ave,14.4123,121.039
LTFRB_1669,4,"Marcelo H. del Pilar / Sinagoga Intersection, Manila",14.5712,120.983
LTFRB_2709,4,"South Luzon Expressway, Muntinlupa City, Manila",14.4111,121.043
LTFRB_1666,4,"Padre Faura / M Adriatico Intersection, Manila",14.5777,120.982
LTFRB_2717,4,"South Luzon Expressway / Gen Paulino Santos Ave Intersection, Muntinlupa City, Manila",14.3878,121.04
LTFRB_1777,4,"Arlegui, Manila",14.5968,120.987
LTFRB_810,4,"Regalado Highway / Mindanao Avenue Intersection, Quezon City",14.7292,121.061
LTFRB_1658,4,"Leon Guinto Sr. / Pedro Gil Intersection, Manila",14.5765,120.989
LTFRB_1781,4,"R Hidalgo, Manila",14.5989,120.988
LTFRB_1657,4,"Josefa Llanes Escoda / Felipe Agoncillo Intersection, Manila",14.578,120.989
LTFRB_2731,4,"South Luzon Expressway, , Camona,  Biñan City, Manila",14.3216,121.063
LTFRB_1782,4,"Quezon Blvd, Manila",14.5994,120.984
LTFRB_2415,4,"Quirino Ave, Bacoor City, Manila",14.4638,120.965
LTFRB_2414,4,"Quirino Ave, Bacoor City, Manila",14.4659,120.968
LTFRB_2361,4,"Ninoy Aquino Ave, Lungsod ng Pasay, Manila",14.5112,121.003
LTFRB_814,4,"Regalado Highway, Quezon City",14.728,121.061
LTFRB_815,4,"Regalado Highway, Quezon City",14.7189,121.061
LTFRB_1807,4,"G Tuazon / Vicente G Cruz Intersection, Manila",14.6056,121.001
LTFRB_2321,4,"F.B. Harrison Street / Taft Avenue Extension Intersection, Lungsod ng Pasay, Manila",14.5323,120.997
LTFRB_1820,4,"Pureza Extension / Ramon Magsaysay Blvd Intersection, Manila",14.6019,121.004
LTFRB_2759,4,"Governor's Drive, Carmona, Manila",14.3194,121.062
LTFRB_1639,4,"Padre Burgos St, Manila",14.5843,120.978
LTFRB_2306,4,"Roxas Blvd, Parañaque City, Manila",14.5189,120.993
LTFRB_2303,4,"Roxas Blvd / T. Claudio Intersection, Parañaque City, Manila",14.5259,120.994
LTFRB_1638,4,"Padre Burgos St / Padre Burgos Street Intersection, Manila",14.5832,120.975
LTFRB_1766,4,"Park Ave, Lungsod ng Pasay",14.544,120.997
LTFRB_2447,4,"Emilio Aguinaldo Hwy, Lungsod ng Dasmariñas, Manila",14.3153,120.945
LTFRB_2930,4,"Villamor Health Center, Andrews Ave, Lungsod ng Pasay, Manila",14.5249,121.012
LTFRB_269,4,"Jollibee, Samson Road, Caloocan City",14.6579,120.972
LTFRB_257,4,"Central Luzon Mission of Sevent Day Adventist, Gov. W. Pascual Avenue, Malabon City",14.6655,120.981
LTFRB_809,4,"Regalado Highway, Quezon City",14.7265,121.061
LTFRB_1728,4,"Taft Ave, Lungsod ng Pasay",14.5602,120.996
LTFRB_1711,4,"Senator Gil Puyat Ave, Lungsod ng Pasay, Manila",14.5517,120.987
LTFRB_2616,4,"South Luzon Expressway / E Service Rd Intersection, Muntinlupa City, Manila",14.4417,121.045
LTFRB_2618,4,"South Luzon Expressway / Don Jesus Blvd Intersection, Muntinlupa City, Manila",14.4345,121.045
LTFRB_2619,4,"South Luzon Expressway, Muntinlupa City, Manila",14.4301,121.046
LTFRB_1731,4,"Harrison St, Manila",14.5478,120.993
LTFRB_263,4,"Lapu-lapu / Samson Road Intersection, Malabon City",14.6572,120.982
LTFRB_1701,4,"Hospital, A.Mabini, Manila",14.563,120.988
LTFRB_2502,4,"Emilio Aguinaldo Hwy, Lungsod ng Dasmariñas, Manila",14.3067,120.953
LTFRB_1698,4,"Leveriza, Manila",14.5649,120.991
LTFRB_765,4,"Dela Costa Avenue / Quirino Highway Intersection, Calcoocan City",14.7448,121.078
LTFRB_1747,4,"Park Ave, Lungsod ng Pasay",14.5419,120.998
LTFRB_1695,4,"Pablo Ocampo Sreet Avenue, Manila",14.5615,120.994
LTFRB_249,4,"Malabon High School, M. D. Del Pilar, Malabon City",14.6682,120.966
LTFRB_1693,4,Leon Guinto Sr. / Estrada,14.5647,120.995
LTFRB_2642,4,"Alabang-Zapote Road, Muntinlupa City, Manila",14.4228,121.037
LTFRB_2643,4,"Alabang-Zapote Road, Muntinlupa City, Manila",14.4239,121.033
LTFRB_1690,4,"Leon Guinto Sr., Manila",14.5719,120.992
LTFRB_2655,4,"Alabang-Zapote Road, Las Piñas City, Manila",14.4362,121.008
LTFRB_1685,4,"President Quirino Ave / Madre Ignacia Intersection, Manila",14.5658,120.988
LTFRB_2471,4,"Emilio Aguinaldo Hwy / Longos Flyover Intersection, Bacoor City, Manila",14.4669,120.963
LTFRB_1684,4,"Hospital, Marcelo H. del Pilar / President Quirino Ave Intersection, Manila",14.565,120.986
LTFRB_2470,4,"Longos Flyover, Bacoor City, Manila",14.4705,120.962
LTFRB_2761,4,"S gate / Governor's Drive Intersection, Carmona, Manila",14.3171,121.058
LTFRB_1635,4,"Railroad Dr / 13th St Intersection, Manila",14.5903,120.97
LTFRB_2793,4,"Congressional Rd,  General Mariano Alvarez, Manila",14.3089,121.017
LTFRB_2796,4,"Congressional Rd,  General Mariano Alvarez, Manila",14.3169,121.024
LTFRB_2212,4,"Narra, Quezon City, Manila",14.6321,121.066
LTFRB_1587,4,"Tutuban Cluster Mall, CM Recto Avenue, Manila",14.6063,120.973
LTFRB_1586,4,"Ricafort, Manila",14.6096,120.969
LTFRB_2210,4,"Molave, Quezon City, Manila",14.6291,121.066
LTFRB_2209,4,"Aurora Blvd / Katipunan Ave, Quezon City, Manila",14.6319,121.074
LTFRB_2208,4,"St. Bridget School, Quezon City, Manila",14.631,121.073
LTFRB_2894,4,"E Service Rd, Parañaque City, Manila",14.4952,121.042
LTFRB_2205,4,"Aurora Blvd, Quezon City, Manila",14.6283,121.066
LTFRB_789,4,"Quirino Highway / St James Intersection, Calcoocan City",14.7355,121.068
LTFRB_290,4,"Malabon Diesel Injection Service, Dagat- Dagatan Avenue, Caloocan City",14.6525,120.966
LTFRB_2204,4,"Aurora Blvd, Quezon City, Manila",14.6277,121.063
LTFRB_1879,4,"Pedro Gil, Manila",14.58,120.989
LTFRB_2905,4,"South Luzon Expressway, Taguig City, Manila",14.5112,121.033
LTFRB_2197,4,"Kamias Rd / Kasing-Kasing Intersection, Quezon City, Manila",14.6339,121.057
LTFRB_1723,4,"Taft Ave / College Rd Intersection, Lungsod ng Pasay",14.5502,120.998
LTFRB_2185,4,"20th Avenue, Quezon City, Manila",14.6237,121.062
LTFRB_2182,4,"P. Tuazon Blvd, Quezon City, Manila",14.6209,121.062
LTFRB_2180,4,"Columbia / Yale Intersection, Quezon City, Manila",14.626,121.055
LTFRB_2910,4,"South Luzon Expressway, Makati City, Manila",14.53,121.023
LTFRB_1895,4,"Paz Mendoza Guazon, Manila",14.5922,121.0
LTFRB_292,4,"Dagat- Dagatan Avenue /  Tanigue Intersection, Caloocan City",14.648,120.968
LTFRB_2920,4,"Aurora Boulevard, Lungsod ng Pasay, Manila",14.5334,121.004
LTFRB_2176,4,"15th Ave / Mirasol Intersection, Quezon City, Manila",14.6225,121.058
LTFRB_965,4,"Batasan - San Mateo, Quezon City",14.6907,121.097
LTFRB_293,4,"Dagat- Dagatan Avenue /  5th Avenue Intersection, Caloocan City",14.6452,120.968
LTFRB_2885,4,"South Luzon Expressway, Taguig City, Manila",14.4705,121.045
LTFRB_2884,4,"South Luzon Expressway, Taguig City, Manila",14.4662,121.045
LTFRB_187,4,"Malabon National High School, Don Bastilio Bautista Boulevard, Malabon City",14.6767,120.942
LTFRB_1849,4,"F. Blumentritt / N.Domingo Intersection, Manila",14.6048,121.023
LTFRB_1830,4,"Ramon Magsaysay Blvd, Manila",14.6027,121.015
LTFRB_1831,4,"Sociego, Quezon City",14.6041,121.017
LTFRB_2293,4,"Diosdado Macapagal Blvd, Lungsod ng Pasay, Manila",14.522,120.991
LTFRB_2291,4,"Diosdado Macapagal Blvd, Lungsod ng Pasay, Manila",14.5268,120.99
LTFRB_821,4,"Regalado Highway / Commonwealth Avenue Intersection, Quezon City",14.7106,121.061
LTFRB_1842,4,"Ramon Magsaysay Blvd, Manila",14.6123,121.031
LTFRB_954,4,"Batasan - San Mateo / Gen. A Luna Intersection, San Mateo",14.6777,121.112
LTFRB_79,4,"MacArthur Highway / Maysan Road Intersection, Malinta, Valenzuela City",14.6928,120.966
LTFRB_1843,4,"Guadalcanal St, Manila",14.6007,121.017
LTFRB_955,4,"Batasan - San Mateo Bridge, San Mateo",14.6794,121.11
LTFRB_2849,4,"National Hwy, San Pedro, Manila",14.3466,121.066
LTFRB_832,4,"Belfast / Bishop Avenue Intersection, Quezon City",14.7287,121.057
LTFRB_840,4,"Commonwealth Avenue / Dona Carmen Intersection, Quezon City",14.7051,121.082
LTFRB_834,4,"Belfast / Bulalakaw Intersection, Quezon City",14.7328,121.056
LTFRB_2852,4,"San Pedro College of Business Administration, National Hwy, San Pedro, Manila",14.3539,121.062
LTFRB_2255,4,"V. Luna Ave, Quezon City, Manila",14.6371,121.05
LTFRB_2865,4,"National Hwy, Muntinlupa City, Manila",14.3813,121.045
LTFRB_1599,4,"T. Mapua, Manila",14.6023,120.98
LTFRB_2252,4,"East Ave, Quezon City, Manila",14.635,121.046
LTFRB_288,4,"Pagamutang Bayan Ng Malabon, Dagat- Dagatan Avenue, Caloocan City",14.6554,120.963
LTFRB_2247,4,"National Kidney and Transplant Institute, East Ave, Quezon City, Manila",14.6467,121.048
LTFRB_2240,4,"V. Luna Ave / Kalayaan Ave Intersection, Quezon City, Manila",14.6361,121.055
LTFRB_1595,4,"Juan Luna / Veronica Intersection, Manila",14.6008,120.973
LTFRB_1862,4,"Daang Bakal / New Panaderos Extension Intersection, Manila",14.5921,121.026
LTFRB_2641,4,"Spectrum Midway Extension, Muntinlupa City, Manila",14.4217,121.04
LTFRB_3178,4,"Pasig Boulevard Extension, Pasig City, Manila",14.5663,121.072
LTFRB_4199,4,"MRT-3 Quezon Avenue Station EDSA,Quezon City, Manila",14.6438,121.038
LTFRB_3393,4,"Rizal Ave / B.A. Cruz Intersection, Taytay, Manila",14.5655,121.132
LTFRB_1041,4,"Visayas Avenue / Congressional Avenue Extension, Quezon City",14.6721,121.044
LTFRB_1042,4,"Quirino Highway, Quezon City",14.7185,121.04
LTFRB_3432,4,"Ortigas Ave / E Bank Rd Intersection, Pagis City, Manila",14.59,121.094
LTFRB_3840,4,"Bayan-Bayanan Ave / T. Bugallon St Intersection, Marikina City, Manila",14.651,121.111
LTFRB_3437,4,"Ortigas Avenue Extension, Cainta, Manila",14.5864,121.115
LTFRB_550,4,"Service Road / Maligaya Intersection , Caloocan City",14.7371,121.059
LTFRB_1046,4,"Quirino Highway / Villaflor Intersection, Quezon City",14.7119,121.04
LTFRB_3824,4,"Aquilina St / E Rodriguez Ave Intersection, Marikina City, Manila",14.6424,121.1
LTFRB_105,4,"Rizal Avenue / Asistio Intersection, Caloocan City",14.6516,120.984
LTFRB_634,4,"Bagbaguin Family Hospital, Genteral Luis, Caloocan City",14.7191,121.006
LTFRB_1052,4,"Quirino Highway / T. Urbano Intersection, Quezon City",14.699,121.034
LTFRB_72,4,"Dalandanan, Fire sub station, MacArthur Highway, Dalandanan, Valenzuela City",14.7041,120.961
LTFRB_3478,4,"Quezon Ave, Teresa, Manila",14.56,121.206
LTFRB_1056,4,"Quirino Highway, Quezon City",14.6918,121.029
LTFRB_3526,4,"Ortigas Avenue Extension / L. Sumulong Memorial Cir Intersection, Antipolo City, Manila",14.5863,121.169
LTFRB_1060,4,"Mindanao Avenue / Don Vicente Intersection, Quezon City",14.6838,121.032
LTFRB_3799,4,"Mayor Gil Fernando Ave / Marcos Highway Intersection, Marikina City, Manila",14.6213,121.102
LTFRB_4263,4,"Roxas Blvd / Sta Escolastica, Manila",14.5498,120.99
LTFRB_4264,4,"Roxas Blvd / Antonio Arnaiz Ave, Manila",14.5453,120.991
LTFRB_3430,4,"Ortigas Ave, Pagis City, Manila",14.5897,121.097
LTFRB_3428,4,"Ortigas Ave / Melbourne Intersection, Pagis City, Manila",14.5894,121.101
LTFRB_636,4,"Genteral Luis, Caloocan City",14.7162,121.003
LTFRB_4240,4,"Epifanio de los Santos Av, Makati City, Manila",14.5477,121.026
LTFRB_1025,4,"City Plaza, Tandang Sora, Quezon City",14.6758,121.045
LTFRB_1027,4,"Tandang Sora / Congressional Avenue Extension Intersection, Quezon City",14.6733,121.049
LTFRB_4235,4,"MMDA EDSA-Julia Vargas Provincial Bus Terminal, Mandaluyong City, Manila",14.5844,121.056
LTFRB_3402,4,"Elementary School, Cainta, Manila",14.5765,121.117
LTFRB_3403,4,"Buenviaje St, Cainta, Manila",14.5779,121.118
LTFRB_1334,4,"Quezon Avenue / D Tuazon Intersection, Quezon City",14.6202,121.004
LTFRB_669,4,"Maycauayan Camalig, City of Meycauayan",14.7463,120.972
LTFRB_4239,4,"Epifanio de los Santos Av, Makati City, Manila",14.5458,121.024
LTFRB_3408,4,"Bonifacio Ave, Cainta, Manila",14.5862,121.115
LTFRB_1129,4,"North Luzon Expressway, Valenzuela City",14.682,121.001
LTFRB_1331,4,"Apo / Quezon Avenue Intersection, Quezon City",14.619,121.003
LTFRB_545,4,"Sto. Nino de Maligaya, Sampaguita, Caloocan City",14.7434,121.056
LTFRB_3413,4,"Marlo Dr / Ortigas Avenue Extension Intersection, Cainta, Manila",14.5839,121.123
LTFRB_3414,4,"Ortigas Ave / 5th Avenue Intersection, Pagis City, Manila",14.588,121.108
LTFRB_1327,4,"Community Centre, San Isidro Labrador, Quezon City",14.6226,120.999
LTFRB_620,4,"General Luis / Gold Intersection, Caloocan City",14.7219,121.037
LTFRB_4462,4,"MRT-3 Boni Ave Station , Epifanio de los Santos Ave / Pinatubo, Makati City, Manila",14.5733,121.048
LTFRB_113,4,"Rizal Avenue / Jose Abad Santos Avenue Interchange, Caloocan City",14.632,120.981
LTFRB_4266,4,"San Juan De Dios Educational Foundation, Incorporated, Pasay City, Manila",14.5393,120.992
LTFRB_1119,4,"North Luzon Expressway, Valenzuela City",14.7013,120.997
LTFRB_1065,4,"Mindanao Avenue, Quezon City",14.6727,121.032
LTFRB_3763,4,"A. Bonifacio Ave, Marikina City, Manila",14.636,121.093
LTFRB_3696,4,"Marcos Hwy, Pasig City, Manila",14.6236,121.085
LTFRB_3699,4,"Marcos Hwy, Pasig City, Manila",14.6285,121.081
LTFRB_109,4,"Banco De Oro, Rizal Avenue, Caloocan City",14.6412,120.984
LTFRB_3702,4,"Marcos Hwy, Marikina City, Manila",14.6327,121.077
LTFRB_4336,4,"United Nations Ave / President Quirino Ave Ext, Manila",14.5853,120.994
LTFRB_3705,4,"Felix Ave, Cainta, Manila",14.5921,121.113
LTFRB_4276,4,"Sales Road, Pasay City, Manila",14.5226,121.025
LTFRB_1237,4,"Epifanio de los Santos Avenue, Quezon City",14.6575,121.017
LTFRB_3762,4,"J. P. Rizal St, Marikina City, Manila",14.6196,121.093
LTFRB_3692,4,"Marcos Hwy / Amang Rodriguez Ave Intersection, Pasig City, Manila",14.6188,121.093
LTFRB_1258,4,"West Avenue, Quezon City",14.6542,121.03
LTFRB_631,4,"Genteral Luis, Caloocan City",14.7196,121.014
LTFRB_4326,4,"Philippine Normal University, San Marcelino / Ayala Blvd, Manila",14.5887,120.985
LTFRB_618,4,"Our Lady Mercy Church, Quirino Highway, Caloocan City",14.7221,121.042
LTFRB_1244,4,"Epifanio de los Santos Avenue / North Avenue Intersection, Quezon City",14.6554,121.031
LTFRB_1245,4,"Dangay, Quezon City",14.6568,121.019
LTFRB_629,4,"Genteral Luis / Silver Intersection, Caloocan City",14.7205,121.018
LTFRB_3745,4,"J. P. Rizal St, Marikina City, Manila",14.6523,121.103
LTFRB_1234,4,Congressional Avenue / Abra Intersection Quezon City,14.6588,121.02
LTFRB_3691,4,"Marcos Hwy, Antipolo City, Manila",14.6196,121.097
LTFRB_4267,4,"Skyway, Makati City, Manila",14.5524,121.01
LTFRB_571,4,"Robinsons Nova Market, Quirino Highway, Caloocan City",14.735,121.057
LTFRB_3536,4,"Ortigas Avenue Extension, Antipolo City, Manila",14.5876,121.159
LTFRB_3794,4,"Sumulong Hwy, Marikina City, Manila",14.6351,121.102
LTFRB_1066,4,"Mindanao Avenue, Quezon City",14.6705,121.032
LTFRB_1067,4,"Mindanao Avenue, Quezon City",14.6684,121.033
LTFRB_4419,4,"Col. Bonny Serrano Ave / 18th Ave, Quezon City, Manila",14.6132,121.065
LTFRB_4416,4,"Connecticut St / Colombia St, San Juan, Manila",14.6015,121.059
LTFRB_107,4,"Asia Trust Bank, Rizal Avenue, Caloocan City",14.6462,120.984
LTFRB_570,4,"Novastop, Quirino Highway, Caloocan City",14.7344,121.055
LTFRB_4407,4,"Anapolis, San Juan, Manila",14.6062,121.057
LTFRB_4341,4,"Balintawak Bus Terminal, Epifanio de los Santos Ave, Quezon City, Manila",14.6574,121.002
LTFRB_4406,4,"Bonifacio Dr, Manila",14.5912,120.971
LTFRB_579,4,"Camarin Road, Caloocan City",14.7437,121.034
LTFRB_1226,4,"Shorhorn / Congressional Avenue, Quezon City",14.6636,121.022
LTFRB_363,4,"A. Mabini Avenue / 4th Avenue West Intersection, Caloocan City",14.6431,120.975
LTFRB_1155,4,"Epifanio de los Santos Avenue / 5th Street Intersection , Caloocan City",14.6573,120.988
LTFRB_3683,4,"SM City Masinag, Marcos Hwy, Antipolo City, Manila",14.6249,121.122
LTFRB_3688,4,"Marcos Hwy, Antipolo City, Manila",14.6214,121.105
LTFRB_3689,4,"Marcos Hwy / Gunting St Intersection, Antipolo City, Manila",14.6208,121.102
LTFRB_3874,4,"Eulogio Rodriguez Jr. Ave, Quezon City, Manila",14.6084,121.078
LTFRB_3861,4,"Lawaan St, Marikina City, Manila",14.6613,121.119
LTFRB_1152,4,"Epifanio de los Santos Avenue / General Evangelista , Caloocan City",14.6573,120.996
LTFRB_393,4,"Jose Corazon de Jesus Elementary School, Juan Luma, Manila",14.6142,120.97
LTFRB_4226,4,"Epifanio de los Santos Av, Mandaluyong City, Manila",14.598,121.06
LTFRB_1008,4,"University of The Phillippines - Ayala Land Technohub, Commonwealth Avenue, Quezon City",14.6563,121.057
LTFRB_640,4,"Genteral Luis / IRC Corporation Road Intersection, Caloocan City",14.7121,120.997
LTFRB_1007,4,"University of The Phillippines - Ayala Land Technohub, Commonwealth Avenue, Quezon City",14.6575,121.059
LTFRB_1159,4,"5th Street / 12th Avenue Intersection, Caloocan City",14.6542,120.988
LTFRB_398,4,"Sto. Nino Church, Nicolas Zamora, Manila",14.608,120.967
LTFRB_4196,4,"Epifanio de los Santos Av, Quezon City, Manila",14.6484,121.035
LTFRB_1004,4,"Commonwealth Avenue / Central Avenue Intersection, Quezon City",14.6617,121.065
LTFRB_399,4,"Isabelo delos Reyes Elementary School, Nicolas Zamora, Manila",14.6089,120.968
LTFRB_505,4,"Lacson, Langit Road, Caloocan City",14.7799,121.037
LTFRB_526,4,"Zabarte Road / Camarin Road Intersection, Caloocan City",14.756,121.044
LTFRB_321,4,"P. Sevilla Street / 2th Avenue West Intersection, Caloocan City",14.6334,120.981
LTFRB_4178,4,"North Luzon Expressway, Marilao, Manila",14.7487,120.971
LTFRB_763,4,"Kalantas / Quirino Highway Intersection, Calcoocan City",14.7475,121.082
LTFRB_4209,4,"Ramon Magsaysay High School, Quezon City, Manila",14.6284,121.047
LTFRB_523,4,"Zabarte Road, Caloocan City",14.7602,121.044
LTFRB_4223,4,"Epifanio de los Santos Av, Quezon City, Manila",14.6031,121.059
LTFRB_323,4,"3th Avenue West / Del Mundo Intersection, Caloocan City",14.6418,120.982
LTFRB_118,4,"Truo FX Terminal, Governor Fortunato Halili Avenue, Bocaue",14.8073,120.94
LTFRB_4021,4,"Balasing - San Jose Rd / Dr Eduardo V. Roquero Sr. Rd, City of San Jose del Monte, Manila",14.8576,121.056
LTFRB_998,4,"Commonwealth Avenue / D Laura Intersection, Quezon City",14.6698,121.077
LTFRB_4648,4,"F Martinez Ave, Mandaluyong City",14.5886,121.037
LTFRB_65,4,"Mercury Drug Store, MacArthur Highway, Malanday, Valenzuela City",14.7173,120.957
LTFRB_519,4,"Nodado General Hospital, Old Zabarte, Caloocan City",14.763,121.044
LTFRB_3243,4,"Caruncho Ave, Pasig City, Manila",14.5608,121.078
LTFRB_530,4,"Camarin Road / Ilang - Ilang Intersection, Caloocan City",14.7569,121.054
LTFRB_1170,4,"Quirino Highway / S Gonzales Drive Intersection, Quezon City",14.664,121.003
LTFRB_1368,4,"Quezon Avenue / Scout Chuatoco Intersection, Quezon City",14.6305,121.016
LTFRB_4513,4,"Alabang-Zapote Rd, Bacoor City, Manila",14.4675,120.967
LTFRB_4205,4,"MRT-3 GMA-Kamuning Station, EDSA, Quezon City, Manila",14.6351,121.043
LTFRB_4496,4,"Dumulay  / Quirino Highway, Quezon City, Manila",14.723,121.042
LTFRB_4233,4,"MRT-3 Ortigas Station, Epifanio de los Santos Av, Mandaluyong City, Manila",14.5877,121.057
LTFRB_746,4,"Quirino Highway, Quezon City",14.7297,121.044
LTFRB_3257,4,"Mercedes Ave, Pasig City, Manila",14.5693,121.084
LTFRB_3282,4,"Ortigas Ave, Pasig City, Manila",14.5891,121.071
LTFRB_325,4,2th Avenue West / Del Mundo Intersection Caloocan City,14.6404,120.982
LTFRB_535,4,"Ipil / Camarin Road Intersection, Caloocan City",14.7571,121.058
LTFRB_3391,4,"Manila Road East, Taytay, Manila",14.5611,121.137
LTFRB_3201,4,"Ortigas Ave, Pasig City, Manila",14.5901,121.082
LTFRB_760,4,"Kaymito / Quirino Highway Intersection, Calcoocan City",14.7536,121.085
LTFRB_3889,4,"Mary Immaculate Hospital, Pasig City, Manila",14.5675,121.071
LTFRB_1384,4,"Quezon Avenue / West Avenue Intersection, Quezon City",14.637,121.026
LTFRB_4510,4,"Circumferential Road 3 / M.H. Del Pilar St, Caloocan City, Manila",14.6445,120.984
LTFRB_4596,4,"Corporate Avenue, Montinlupa City",14.4196,121.041
LTFRB_744,4,"Novaliches Seventh Day Adventist Church, Quirino Highway, Quezon City, Manila",14.7266,121.041
LTFRB_1397,4,"Quezon Avenue / Epifanio de los Santos Avenue Intersection, Quezon City",14.6439,121.037
LTFRB_4506,4,"JCSGO Caloocan, Rizal Ave / 6th Ave West, Caloocan City, Manila",14.6459,120.984
LTFRB_392,4,"Pritil Public Market, Juan Luma / Tayuman Road Intersection, Manila",14.6179,120.971
LTFRB_3388,4,"Rodriguez Ave, Taytay, Manila",14.5587,121.136
LTFRB_4507,4,"Rizal Ave / 7th Ave West, Caloocan City, Manila",14.6474,120.984
LTFRB_1012,4,"Agricultural Training Institute, Elliptical Rd, Quezon City",14.6543,121.049
LTFRB_1346,4,"N. S. Amoranto Sr. Avenue / Banawe Avenue Intersection, Quezon City",14.6327,121.002
LTFRB_4214,3,"MRT-3 Cubao Station, Epifanio de los Santos Av, Quezon City, Manila",14.6185,121.052
LTFRB_4275,3,"PNR San Andres Station, South Luzon Expressway, Makati City, Manila",14.5756,120.998
LTFRB_2336,3,"Quirino Ave, Parañaque City, Manila",14.5243,120.997
LTFRB_4215,3,"Samson College of Science and Technology, Epifanio de los Santos Av, Quezon City, Manila",14.6169,121.052
LTFRB_2493,3,"Emilio Aguinaldo Hwy, Imus, Manila",14.3593,120.938
LTFRB_2332,3,"Quirino Ave, Parañaque City, Manila",14.5275,120.997
LTFRB_2489,3,"Emilio Aguinaldo Hwy, Imus, Manila",14.3798,120.939
LTFRB_2335,3,"Airport Rd / Domestic Rd Intersection, Parañaque City, Manila",14.5274,121.0
LTFRB_4270,3,"South Luzon Expressway, Makati City, Manila",14.5596,121.006
LTFRB_820,3,"Regalado Highway, Quezon City",14.7117,121.061
LTFRB_2439,3,"Emilio Aguinaldo Hwy, Imus, Manila",14.3531,120.938
LTFRB_2497,3,"Emilio Aguinaldo Hwy, Lungsod ng Dasmariñas, Manila",14.3417,120.937
LTFRB_2325,3,"Cuneta Avenue, Lungsod ng Pasay, Manila",14.537,120.998
LTFRB_4285,3,"Villamor Health Center, Andrews Avenue, Pasay City, Manila",14.5246,121.011
LTFRB_2302,3,"Roxas Blvd / C. Rivera Intersection, Parañaque City, Manila",14.5292,120.994
LTFRB_4207,3,"Epifanio de los Santos Av, Quezon City, Manila",14.632,121.045
LTFRB_63,3,"MacArthur / Del Pilar Intersection, Malanday, Valenzuela City, Philippines",14.7183,120.957
LTFRB_2307,3,"Manila-Cavite Expressway, Parañaque City, Manila",14.5142,120.993
LTFRB_2313,3,"Manila-Cavite Expressway, Parañaque City, Manila",14.4965,120.988
LTFRB_2315,3,"Manila-Cavite Expressway, Parañaque City, Manila",14.4913,120.985
LTFRB_2316,3,"Manila-Cavite Expressway, Las Piñas City, Manila",14.4882,120.983
LTFRB_2319,3,"F.B. Harrison Street, Lungsod ng Pasay, Manila",14.5359,120.996
LTFRB_2517,3,"I. Mangubat St / Emilio Aguinaldo Hwy Intersection, Lungsod ng Dasmariñas, Manila",14.3268,120.94
LTFRB_2503,3,"Emilio Aguinaldo Hwy / Governor's Dr Intersection , Lungsod ng Dasmariñas, Manila",14.3018,120.954
LTFRB_2320,3,"F.B. Harrison Street / Russel Avenue Intersection, Lungsod ng Pasay, Manila",14.534,120.996
LTFRB_2339,3,"Quirino Ave, Parañaque City, Manila",14.5186,120.996
LTFRB_4279,3,"Sales Road / Newport Blvd, Pasay City, Manila",14.5178,121.02
LTFRB_4208,3,"Quezon City Public Library, Quezon City, Maniila",14.6302,121.046
LTFRB_2322,3,"Cuneta Avenue, Lungsod ng Pasay, Manila",14.5361,120.994
LTFRB_2324,3,"Redemptorist Road, Parañaque City, Manila",14.5322,120.995
LTFRB_4213,3,"Epifanio de los Santos Av / Aurora Blvd, Quezon City, Manila",14.6205,121.051
LTFRB_2498,3,"Emilio Aguinaldo Hwy, Lungsod ng Dasmariñas, Manila",14.3363,120.938
LTFRB_2338,3,"Quirino Ave / Bayview Drive Intersection, Parañaque City, Manila",14.5205,120.997
LTFRB_4218,3,"Epifanio de los Santos Av, Quezon City, Manila",14.6121,121.055
LTFRB_427,3,"Starmall San Jose de Monte, Quirino Highway, City of San Jose del Monte",14.8138,121.072
LTFRB_4242,3,"Epifanio de los Santos Av, Makati City, Manila",14.5518,121.031
LTFRB_812,3,"Regalado Highway / SM Fairview Intersection, Quezon City",14.7334,121.061
LTFRB_2450,3,"Emilio Aguinaldo Hwy, Lungsod ng Dasmariñas, Manila",14.3043,120.954
LTFRB_2400,3,"Natalia, Parañaque City, Manila",14.5079,121.009
LTFRB_2448,3,"Emilio Aguinaldo Hwy, Lungsod ng Dasmariñas, Manila",14.3121,120.948
LTFRB_4249,3,"Sacred Heart Memorial Gardens, Don Placido Campos Av, Dasmariñas City, Manila",14.32,120.94
LTFRB_2410,3,"Quirino Ave, Las Piñas City, Manila",14.4771,120.978
LTFRB_2412,3,"Quirino Ave, Las Piñas City, Manila",14.4716,120.974
LTFRB_4225,3,"Epifanio de los Santos Av / White Plains Av, Mandaluyong City, Manila",14.5997,121.06
LTFRB_2413,3,"Quirino Ave, Las Piñas City, Manila",14.4691,120.97
LTFRB_2416,3,"Quirino Ave, Bacoor City, Manila",14.4607,120.961
LTFRB_2446,3,"Emilio Aguinaldo Hwy, Lungsod ng Dasmariñas, Manila",14.3199,120.942
LTFRB_2341,3,"NAIA Rd, Parañaque City, Manila",14.5169,120.999
LTFRB_2419,3,"Emilio Aguinaldo Hwy / Tirona Hwy Intersection, Bacoor City, Manila",14.4454,120.953
LTFRB_4227,3,"Epifanio de los Santos Av, Mandaluyong City, Manila",14.5964,121.06
LTFRB_4229,3,"Epifanio de los Santos Av / Ortigas Av, Mandaluyong City, Manila",14.5934,121.059
LTFRB_2431,3,"Emilio Aguinaldo Hwy, Imus, Manila",14.3923,120.94
LTFRB_4236,3,"MMDA EDSA Starmall- Shaw Bus Terminal Southbound, Mandaluyong City, Manila",14.5823,121.055
LTFRB_2445,3,"Emilio Aguinaldo Hwy, Lungsod ng Dasmariñas, Manila",14.3248,120.941
LTFRB_2433,3,"Emilio Aguinaldo Hwy, Imus, Manila",14.3826,120.939
LTFRB_2436,3,"Emilio Aguinaldo Hwy, Imus, Manila",14.3672,120.938
LTFRB_2443,3,"Emilio Aguinaldo Hwy, Lungsod ng Dasmariñas, Manila",14.3331,120.939
LTFRB_2437,3,"Golf and Country Club, Emilio Aguinaldo Hwy, Imus, Manila",14.3619,120.938
LTFRB_813,3,"SM Public Transport Terminal, Regalado Highway, Quezon City",14.7347,121.061
LTFRB_81,3,"South supermarket, MacArthur Highway, Valenzuela City",14.6922,120.971
LTFRB_4250,3,"Don Placido Campos Av, Dasmariñas City, Manila",14.3182,120.942
LTFRB_4255,3,"Governor's Dv, Dasmariñas City, Manila",14.2991,120.959
LTFRB_2484,3,"Emilio Aguinaldo Hwy, Imus, Manila",14.4116,120.941
LTFRB_2482,3,"Emilio Aguinaldo Hwy, Bacoor City, Manila",14.4263,120.944
LTFRB_2476,3,"Emilio Aguinaldo Hwy, Bacoor City, Manila",14.4531,120.957
LTFRB_2475,3,"Quirino Ave, Bacoor City, Manila",14.459,120.959
LTFRB_2474,3,"Quirino Ave, Las Piñas City, Manila",14.473,120.976
LTFRB_2473,3,"Talaba IV Barangay Hall, Emilio Aguinaldo Hwy, Bacoor City, Manila",14.4613,120.96
LTFRB_2342,3,"NAIA Rd / Domestic Rd Intersection, Lungsod ng Pasay, Manila",14.5168,121.001
LTFRB_2472,3,"Emilio Aguinaldo Hwy, Bacoor City, Manila",14.4647,120.961
LTFRB_816,3,"Regalado Highway, Quezon City",14.7175,121.061
LTFRB_4234,3,"Epifanio de los Santos Av, Mandaluyong City, Manila",14.5859,121.056
LTFRB_4219,3,"Epifanio de los Santos Av, Quezon City, Manila",14.6094,121.056
LTFRB_247,3,"M. D. Del Pilar / Mesina Intersection, Malabon City",14.6728,120.963
LTFRB_2359,3,"NAIA Rd / Imelda Ave Intersection, Parañaque City, Manila",14.5154,121.004
LTFRB_2468,3,"Manila-Cavite Expy, Bacoor City, Manila",14.4752,120.97
LTFRB_2465,3,"Manila-Cavite Expy, Bacoor City, Manila",14.4811,120.977
LTFRB_2360,3,"Imelda Ave / Macopa Intersection, Lungsod ng Pasay, Manila",14.5131,121.003
LTFRB_426,3,"Paradise Road / Quirino Highway, City of San Jose del Monte",14.8151,121.075
LTFRB_2372,3,"Ninoy Aquino Ave, Parañaque City, Manila",14.4904,120.992
LTFRB_2375,3,"Virra Mall Sucat, Dr Arcadio Santos Ave, Parañaque City, Manila",14.4835,120.995
LTFRB_2393,3,"Dr A. Santos Ave, Parañaque City, Manila",14.4555,121.04
LTFRB_632,3,"Genteral Luis, Caloocan City",14.7195,121.011
LTFRB_621,3,"WL Food Products, Genteral Luis, Caloocan City",14.7218,121.035
LTFRB_766,3,"Makabud, Calcoocan City",14.7481,121.08
LTFRB_43,3,"AMA University, MacArthur Highway, City of Meycauayan",14.7343,120.962
LTFRB_4505,3,"J. Teodoro / 5th Ave West, Caloocan City, Manila",14.6446,120.983
LTFRB_521,3,"Captain F. Samano / Champaca Intersection, Caloocan City",14.7605,121.046
LTFRB_2061,3,"Pioneer / Madison Intersection, Mandaluyong City, Manila",14.5712,121.05
LTFRB_2065,3,"Boni Ave / Sto Rosario Intersection, Mandaluyong City, Manila",14.5785,121.033
LTFRB_525,3,"New Lance Center for Education, Zabarte Road, Caloocan City",14.7586,121.044
LTFRB_2070,3,"South Dr / A. Arnaiz Ave Intersection, Makati City, Manila",14.5493,121.025
LTFRB_2074,3,"Quezon Institute, Eulogio Rodriguez Sr Ave, Quezon City, Manila",14.6186,121.012
LTFRB_2076,3,"Delos Santos Medical Center, Eulogio Rodriguez Sr. Ave, Quezon City, Manila",14.6197,121.018
LTFRB_53,3,"Banga Baranggay Hal, MacArthur Highway, City of Meycauayan",14.7277,120.961
LTFRB_2079,3,"St.Joseph College, Eulogio Rodriguez Sr. Ave, Quezon City, Manila",14.6222,121.025
LTFRB_2080,3,"Eulogio Rodriguez Sr. Ave / Sunnyside Dr Intersection, Quezon City, Manila",14.6229,121.028
LTFRB_2081,3,"Christ the King Seminary, Eulogio Rodriguez Sr. Ave, Quezon City, Manila",14.6238,121.031
LTFRB_2082,3,"Eulogio Rodriguez Sr. Ave / Balete Dr Intersection, Quezon City, Manila",14.6241,121.035
LTFRB_2092,3,"Doña M. Hemady Ave / Ramon Magsaysay Blvd Intersection, Quezon City, Manila",14.6151,121.037
LTFRB_2093,3,"Saint Paul University of Quezon City, Aurora Boulevard Cor. Gilmore Avenue, Quezon City, Manila",14.6168,121.04
LTFRB_2098,3,"Champaca / Lilac Intersection, Quezon City, Manila",14.6271,121.02
LTFRB_2056,3,"Epifanio de los Santos Avenue / United Intersection, Mandaluyong City, Manila",14.5793,121.052
LTFRB_2102,3,"Don Alejandro Roces Ave / Scout Reyes Intersection, Quezon City, Manila",14.6305,121.026
LTFRB_4497,3,"Teodoro Gener / K-1st, Quezon City, Manila",14.6274,121.037
LTFRB_4492,3,"T.M. Kalaw, Manila",14.5824,120.982
LTFRB_4491,3,"T.M. Kalaw, Manila",14.5829,120.983
LTFRB_2107,3,"Tomas Morato Ave / Scout De Guia Intersection, Quezon City, Manila",14.6311747463,121.034553051
LTFRB_539,3,"Camarin Road, Caloocan City",14.757,121.055
LTFRB_2109,3,"Tomas Morato Ave, Quezon City, Manila",14.6255,121.033
LTFRB_4488,3,"Padre Burgos St, Manila",14.5872,120.981
LTFRB_4486,3,"Juan Luna Monument, General Luna St, Manila",14.5859,120.978
LTFRB_4485,3,"Juan Luna Monument, Padre Burgos St / Maria Y. Orosa St, Manila",14.5847,120.979
LTFRB_448,3,"San Jose Water District, Un-named Road, City of San Jose del Monte",14.8095,121.058
LTFRB_4477,3,"P. Oliveros St, Antipolo City, Manila",14.5877,121.173
LTFRB_4475,3,"P. Oliveros St, Antipolo City, Manila",14.5874,121.171
LTFRB_4471,3,"Ortigas Ave Extension, Antipolo City, Manila",14.5869,121.168
LTFRB_520,3,"Captain F. Samano, Caloocan City",14.764,121.044
LTFRB_52,3,MacArthur Highway / Banga - Tugatog Road Intersection City of Meycauayan,14.7279,120.961
LTFRB_547,3,"Sampaguita / Atrium Intersection , Caloocan City",14.7408,121.056
LTFRB_4647,3,"Fabella Road, Manaluyong City",14.5864,121.037
LTFRB_2002,3,"Nicanor Garcia / Ascuncion Intersection, Makati City, Manila",14.5683,121.024
LTFRB_476,3,"Quirino Highway, City of San Jose del Monte",14.7702,121.079
LTFRB_477,3,"Quirino Highway / Malaria Road Intersection, City of San Jose del Monte",14.7691,121.08
LTFRB_2009,3,"South Ave / Pablo Ocampo Sr. Extension, Makati City, Manila",14.5666,121.017
LTFRB_473,3,"Brighton School, Quirino Highway, City of San Jose del Monte",14.7768,121.075
LTFRB_4708,3,"S E Approach, Pasig City",14.587,121.096
LTFRB_2017,3,"Guerrero / Makati Ave Intersection, Makati City, Manila",14.5656,121.03
LTFRB_2018,3,"Makati Ave / Hercules Intersection, Makati City, Manila",14.5632,121.029
LTFRB_4674,3,"Plaza Santa Cruz, Manila City",14.5992,120.98
LTFRB_2019,3,"Water Front Dr / Dr Jose P. Rizal Ave Intersection, Makati City, Manila",14.5668,121.035
LTFRB_483,3,"Our Lady of the Star Nursery, St Joseph, City of San Jose del Monte",14.7661,121.071
LTFRB_4657,3,"Domingo M Guevara, Mandaluyong City",14.5793,121.048
LTFRB_2021,3,"Dr Jose P. Rizal Ave, Makati City, Manila",14.5675,121.041
LTFRB_485,3,"Dr. Jose Rodriguez Memorial Hospital, St Joseph, City of San Jose del Monte",14.7659,121.065
LTFRB_2027,3,"P.Victorino / E.Pantaleon Intersection, Makati City, Manila",14.5695,121.041
LTFRB_2053,3,"ASI Automation & Security Innovation Products & Services, Shaw Blvd., Mandaluyong City, Manila",14.5858,121.048
LTFRB_487,3,"Dr Uyguanco Avenue, City of San Jose del Monte",14.7671,121.063
LTFRB_496,3,"Langit Road, Caloocan City",14.7768,121.046
LTFRB_497,3,"Green Construction Supply, Langit Road, Caloocan City",14.7764,121.05
LTFRB_4614,3,"Mt Mayon, Bacoor City",14.4125,120.989
LTFRB_461,3,"Sta. Maria - Tungkong Mangga Rd / Quirino Highway Intersection, City of San Jose del Monte",14.789,121.075
LTFRB_4608,3,"Sampaguita, Bacoor City",14.4141,120.979
LTFRB_504,3,"Langit Road, Caloocan City",14.7795,121.039
LTFRB_4585,3,"Commerce Avenue, Montinlupa City",14.4233,121.025
LTFRB_457,3,"Mayamy Bus Station, Quirino Highway, City of San Jose del Monte",14.7929,121.074
LTFRB_456,3,"College of St Anthony, Quirino Highway, City of San Jose del Monte",14.796,121.073
LTFRB_516,3,"Old Zabarte, Caloocan City",14.772,121.044
LTFRB_517,3,"Old Zabarte, Caloocan City",14.77,121.044
LTFRB_518,3,"Old Zabarte, Caloocan City",14.7734,121.045
LTFRB_2051,3,"Shaw Blvd, Mandaluyong City, Manila",14.5892,121.042
LTFRB_2117,3,"Kamuning Rd, Quezon City, Manila",14.6295,121.042
LTFRB_2122,3,"Kamias Rd / Kalayaan Ave Intersection, Quezon City, Manila",14.6332,121.054
LTFRB_2299,3,"Diosdado Macapagal Blvd / Pacific Avenue Intersection, Parañaque City, Manila",14.506,120.988
LTFRB_2266,3,"University Ave / E Jacinto St Intersection, Quezon City, Manila",14.6548,121.062
LTFRB_587,3,"Deparo Road / Teafilo Samson Avenue Intersection, Caloocan City",14.7402,121.026
LTFRB_2235,3,"F. Castillo, Quezon City, Manila",14.6268,121.066
LTFRB_599,3,"United Methodist Church, Susano, Caloocan City",14.7361,121.033
LTFRB_4349,3,"5th St / 9th Ave East, Caloocan City, Manila",14.65,120.988
LTFRB_4348,3,"5th St / 8th Ave East, Caloocan City, Manila",14.6486,120.988
LTFRB_4347,3,"5th St / 7th Ave East, Caloocan City, Manila",14.6474,120.988
LTFRB_4345,3,"5th Ave West / Agno, Caloocan City, Manila",14.6444,120.987
LTFRB_2248,3,"East Ave, Quezon City, Manila",14.6444,121.048
LTFRB_2249,3,"East Ave, Quezon City, Manila",14.6422,121.047
LTFRB_4340,3,"Balintawak LRT 1, Epifanio de los Santos Ave, Quezon City, Manila",14.6574,121.004
LTFRB_4338,3,"Epifanio de los Santos Ave, Quezon City, Manila",14.6574,121.009
LTFRB_833,3,"Belfast / SM Fairview Intersection, Quezon City",14.7309,121.055
LTFRB_2263,3,"Magsaysay Ave / Tandang Sora Ave Intersection, Quezon City, Manila",14.6576,121.074
LTFRB_2264,3,"Katipunan Ave, Quezon City, Manila",14.6551,121.074
LTFRB_4335,3,"United Nations Ave / Tanque, Manila",14.5847,120.992
LTFRB_841,3,"Commonwealth Avenue, Quezon City",14.7027291235,121.085729599
LTFRB_4330,3,"D Romualdez Sr / United Nations Ave, Manila",14.5837,120.988
LTFRB_4329,3,"Lorrie's Kitchenette, San Marcelino / T.M. Kalaw, Manila",14.5846,120.987
LTFRB_829,3,"Mindanao Avenue, Quezon City",14.7284,121.06
LTFRB_2284,3,"Columbia / Cambridge INtersection, Quezon City, Manila",14.6254,121.053
LTFRB_605,3,"Susano, Caloocan City",14.7267,121.039
LTFRB_606,3,"Susano / Austria Intersection, Caloocan City",14.7253,121.039
LTFRB_2285,3,"20th Ave / P. Tuazon Blvd Intersection, Quezon City, Manila",14.6208,121.063
LTFRB_4307,3,"Susana Heights Toll Gate, Susana Heights Access Rd, Muntinlupa City, Manila",14.3813,121.04
LTFRB_2288,3,"Diosdado Macapagal Blvd, Lungsod ng Pasay, Manila",14.5343,120.989
LTFRB_2289,3,"Coral Way / Diosdado Macapagal Blvd Intersection, Lungsod ng Pasay, Manila",14.5318,120.99
LTFRB_4305,3,"Susana Heights Access Rd, Muntinlupa City, Manila",14.383,121.041
LTFRB_4302,3,"Susana Heights Access Rd, Muntinlupa City, Manila",14.3873,121.044
LTFRB_2295,3,"Diosdado Macapagal Blvd / NAIA Road Intersection, Lungsod ng Pasay, Manila",14.5171,120.991
LTFRB_2296,3,"Uniwide Coastal Mall, Diosdado Macapagal Blvd, Parañaque City, Manila",14.5147,120.99
LTFRB_584,3,"Deparo Road, Caloocan City",14.7387,121.032
LTFRB_583,3,"Deparo Road / Camarin Road Intersection, Caloocan City",14.7375,121.033
LTFRB_4460,3,"Epifanio de los Santos Ave / Lions Rd, Makati City, Manila",14.5689,121.046
LTFRB_4439,3,"Ermin Garcia Ave / Judege Damian Jimenez, Quezon City, Manila",14.6255,121.04
LTFRB_2126,3,"New York Ave / Stanford Intersection, Quezon City, Manila",14.6283,121.054
LTFRB_446,3,"First City Providential College, Un-named Road, City of San Jose del Monte",14.8105,121.062
LTFRB_2139,3,"San Juan Reservior, N.Domingo, San Juan, Manila",14.6143,121.04
LTFRB_4459,3,"Coronado, Makati City, Manila",14.5679,121.045
LTFRB_2147,3,"Ortigas Ave, San Juan, Manila",14.607,121.04
LTFRB_2148,3,"Ortigas Ave, San Juan, Manila",14.6058,121.042
LTFRB_55,3,"Land Bank, MacArthur Highway, City of Meycauayan",14.727,120.961
LTFRB_2155,3,"Ortigas Ave, Quezon City, Manila",14.5924,121.059
LTFRB_4456,3,"Taguig Catholic Cemetery, Bagong Calzada, Taguig City, Manila",14.5281,121.073
LTFRB_552,3,"St Claire College of Caloocan, Zabarte Road, Caloocan City",14.7554,121.044
LTFRB_4449,3,"Victoriano Luna Ave, Quezon City, Manila",14.6377,121.047
LTFRB_2165,3,"Liberty Ave / 13th Avenue Intersection, Quezon City, Manila",14.6144,121.06
LTFRB_556,3,"Zabarte Road / Mahogany Intersection, Caloocan City",14.7481,121.045
LTFRB_4442,3,"Eulogio Rodriguez Sr. Ave / Don Alfredo Egea, Quezon City, Manila",14.6244,121.043
LTFRB_4427,3,"Col. Bonny Serrano Ave, Quezon City, Manila",14.6145,121.072
LTFRB_2203,3,"Anonas / Molave Intersection, Quezon City, Manila",14.6286,121.063
LTFRB_4426,3,"Col. Bonny Serrano Ave, Quezon City, Manila",14.6156,121.074
LTFRB_4423,3,"Col. Bonny Serrano Ave / FVR Rd, Quezon City, Manila",14.6163,121.074
LTFRB_2178,3,"Aurora Blvd / General Aguinaldo Ave Intersection, Quezon City, Manila",14.6229,121.053
LTFRB_218,3,"Navotas City Hall, M. Naval, City of Navotas",14.6583,120.947
LTFRB_4422,3,"Col. Bonny Serrano Ave, Quezon City, Manila",14.6149,121.073
LTFRB_2183,3,"P. Tuazon Blvd / 21st Ave Intersection, Quezon City, Manila",14.6216,121.064
LTFRB_2184,3,"20th Ave / D. Silang Intersection, Quezon City, Manila",14.6186,121.064
LTFRB_4421,3,"Col. Bonny Serrano Ave, Quezon City, Manila",14.6144,121.07
LTFRB_4420,3,"Col. Bonny Serrano Ave / Arturo Ennie Ave, Quezon City, Manila",14.6139,121.067
LTFRB_442,3,"Francisco Homes Subdivision, Quirino Highway, City of San Jose del Monte",14.8067,121.068
LTFRB_2190,3,"Yale / Ermin Garcia Ave Intersection, Quezon City, Manila",14.6294,121.053
LTFRB_2191,3,"Ermin Garcia Ave / 15th Ave., Quezon City, Manila",14.6285,121.056
LTFRB_2198,3,"Kamias Rd / Anonas Extension Intersection, Quezon City, Manila",14.6345,121.059
LTFRB_2202,3,"Anonas / Tampoy Intersection, Quezon City, Manila",14.6297,121.062
LTFRB_59,3,"Saguz Mart, MacArthur Highway, City of Meycauayan",14.7217,120.959
LTFRB_2631,3,"Manuel L. Quezon, Muntinlupa City, Manila",14.447,121.051
LTFRB_42,3,"MacArthur Highway / Malhacan Road Intersection, City of Meycauayan",14.7371,120.961
LTFRB_2518,3,"Emilio Aguinaldo Hwy / Congressional Rd Intersection, Lungsod ng Dasmariñas, Manila",14.4497,120.955
LTFRB_3058,3,"Carlos P. Garcia Ave, Taguig City, Manila",14.5254,121.056
LTFRB_3056,3,"Heritage Memorial Park, Carlos P. Garcia Ave, Taguig City, Manila",14.5196,121.053
LTFRB_3054,3,"Carlos P. Garcia Ave, Taguig City, Manila",14.5164,121.047
LTFRB_3053,3,"Carlos P. Garcia Ave, Taguig City, Manila",14.5163,121.043
LTFRB_3052,3,"Carlos P. Garcia Ave, Taguig City, Manila",14.5162,121.039
LTFRB_3431,3,"Ortigas Ave, Pagis City, Manila",14.5898,121.095
LTFRB_3039,3,"C. Raymundo Ave, Pasig City, Manila",14.584,121.088
LTFRB_3436,3,"Ortigas Avenue Extension, Cainta, Manila",14.5868,121.113
LTFRB_3442,3,"Ortigas Avenue Extension, Cainta, Manila",14.5852,121.119
LTFRB_3037,3,"F Andres / C. Raymundo Ave Intersection, Pasig City, Manila",14.5884,121.089
LTFRB_3036,3,"Ortigas Ave  / C. Raymundo Ave Intersection, Pasig City, Manila",14.5903,121.09
LTFRB_3452,3,"Coco Demer St / Ortigas Avenue Extension, Tatay, Manila",14.579,121.139
LTFRB_3454,3,"Ortigas Avenue Extension, Tatay Manila",14.5779,121.142
LTFRB_3033,3,"F Andres / Dr Sixto Antonio Ave Intersection, Pasig City, Manila",14.5885,121.085
LTFRB_3032,3,"Dr Sixto Antonio Ave, Pasig City, Manila",14.587,121.085
LTFRB_3059,3,"Challenger / Carlos P. Garcia Ave Intersection, Taguig City, Manila",14.5293,121.057
LTFRB_3060,3,"Carlos P. Garcia Ave, Taguig City, Manila",14.5332,121.058
LTFRB_3426,3,"Ortigas Ave, Pagis City, Manila",14.5892,121.102
LTFRB_3085,3,"32nd St / Justice Drive Intersection, Taguig City, Manila",14.5539,121.049
LTFRB_3108,3,"Kalayaan Ave, Taguig City, Manila",14.5597,121.047
LTFRB_3107,3,"Kalayaan Ave / Gen. Jacinto St Intersection, Taguig City, Manila",14.5585,121.046
LTFRB_3095,3,"McKinley Pkwy, Taguig City, Manila",14.5455,121.052
LTFRB_3400,3,"Marketplace, Cainta, Manila",14.5757,121.122
LTFRB_3092,3,"26th Street / 11th Ave Intersection, Taguig City, Manila",14.5474,121.052
LTFRB_3401,3,"Bonifacio Ave, Cainta, Manila",14.5771,121.12
LTFRB_3071,3,"Carlos P. Garcia Ave, Makati City, Manila",14.5579,121.064
LTFRB_3425,3,"Ortigas Ave, Pagis City, Manila",14.5886,121.105
LTFRB_307,3,"STI Caloocan, M. Asistio Avenue, Caloocan City",14.6516,120.983
LTFRB_3069,3,"Carlos P. Garcia Ave, Makati City, Manila",14.5533,121.061
LTFRB_3407,3,"Bonifacio Ave, Cainta, Manila",14.584,121.115
LTFRB_3068,3,"Carlos P. Garcia Ave, Makati City, Manila",14.5513,121.059
LTFRB_3063,3,"Carlos P. Garcia Ave near British Embassy, Taguig City, Manila",14.5409,121.055
LTFRB_73,3,"Dalandanan Health Centre, MacArthur Highway, Dalandanan, Valenzuela City",14.7036,120.962
LTFRB_3031,3,"Dr Sixto Antonio Ave, Pasig City, Manila",14.5851,121.084
LTFRB_3455,3,"Manila East Rd, Tatay, Manila",14.577,121.143
LTFRB_3456,3,"Manila East Rd, Tatay, Manila",14.5757,121.144
LTFRB_3549,3,"Ortigas Avenue Extension, Tatay, Manila",14.5779,121.144
LTFRB_3533,3,"Ortigas Avenue Extension, Antipolo City, Manila",14.5868,121.159
LTFRB_3540,3,"Ortigas Avenue Extension, Antipolo City, Manila",14.5855,121.153
LTFRB_2926,3,"Andrews Ave, Lungsod ng Pasay, Manila",14.5277,121.006
LTFRB_3542,3,"Fibertex Corporation, Ortigas Avenue Extension, Tatay, Manila",14.5832,121.151
LTFRB_3546,3,"Ortigas Avenue Extension, Tatay, Manila",14.5805,121.147
LTFRB_3548,3,"Ortigas Avenue Extension, Tatay, Manila",14.5788,121.145
LTFRB_786,3,"Quirino Highway, Calcoocan City",14.7398,121.075
LTFRB_3530,3,"Ortigas Avenue Extension / Narra Dr Intersection, Antipolo City, Manila",14.5862,121.164
LTFRB_3557,3,"C. Lawis St / M. H. Del Pilar St Intersection,  Antipolo City, Manila",14.5895,121.176
LTFRB_711,3,"Paso de Blas / L San Diego Intersection, Valenzuela City",14.7071,120.991
LTFRB_3562,3,"Sto. Niño St,  Antipolo City, Manila",14.5854,121.178
LTFRB_291,3,"Dagat- Dagatan Avenue /  Tulingan Intersection, Caloocan City",14.6501,120.968
LTFRB_3574,3,"Martinez St / A. Bonifacio St Intersection, Antipolo City, Manila",14.5871,121.175
LTFRB_3575,3,"P. Oliveros St / A. Bonifacio St Intersection, Antipolo City, Manila",14.5878,121.175
LTFRB_294,3,"A. Mabini Avenue / Geronimo Intersection, Caloocan City",14.6557,120.972
LTFRB_2948,3,"Lawton Ave / Bayani Road Intersection, Taguig City, Manila",14.5347,121.041
LTFRB_3018,3,"Dr Sixto Antonio Ave, Pasig City, Manila",14.5641,121.077
LTFRB_3528,3,"Ortigas Avenue Extension, near Alta Vista Ave Intersection , Antipolo City, Manila",14.5879,121.166
LTFRB_3015,3,"Dr Sixto Antonio Ave, Pasig City, Manila",14.5619,121.077
LTFRB_3480,3,"Quezon Ave, Teresa, Manila",14.5583,121.212
LTFRB_349,3,"d E. Marcos Highway / Capulong Intersection, Velasquez, Tondo",14.6204,120.96
LTFRB_3516,3,"L. Sumulong Memorial Cir, Antipolo City, Manila",14.5812,121.179
LTFRB_2996,3,"M. Almeda, Pateros, Manila",14.5447,121.068
LTFRB_2994,3,"B. Morcilla St, Pateros, Manila",14.545,121.067
LTFRB_2991,3,"M. Almeda / G. de Borja Intersection, Pateros, Manila",14.5428,121.067
LTFRB_353,3,"F. Varona / Trinidad Intersection, Tondo",14.6231,120.964
LTFRB_2984,3,"Gen. Luna St / Camia Intersection, Taguig City, Manila",14.5337,121.068
LTFRB_2983,3,"Gen. Luna St / Levi B. Mariano Ave Intersection, Taguig City, Manila",14.5314,121.069
LTFRB_2981,3,"M. L. Quezon St, Taguig City, Manila",14.5292,121.071
LTFRB_3529,3,"Ortigas Avenue Extension, Antipolo City, Manila",14.587,121.165
LTFRB_2980,3,"M. L. Quezon St, Taguig City, Manila",14.5269,121.072
LTFRB_297,3,"Mercury Drug, A. Mabini Avenue, Caloocan City",14.6507,120.973
LTFRB_340,3,"H. Lopez Blvd / Guidote Intersection, Tondo",14.6271,120.966
LTFRB_3109,3,"Kalayaan Ave / Commercio Intersection, Taguig City, Manila",14.5613,121.049
LTFRB_3394,3,"Rizal Ave / Gonzaga Intersection, Taytay, Manila",14.5674,121.13
LTFRB_330,3,"ADC Batching Point, North Bay Boulevard, City of Navotas",14.646,120.953
LTFRB_3174,3,"Shaw Blvd, Pasig City, Manila",14.5716,121.065
LTFRB_3171,3,"Reliance St, Mandaluyong City, Manila",14.5743,121.053
LTFRB_317,3,"Baltazar / 5th Avenue West Intersection, Caloocan City",14.6448,120.978
LTFRB_745,3,"Bestlink Institute of Information Technology, 121.041724",14.7281,121.042
LTFRB_3285,3,"M.H. Del Pilar / Osmena Intersection, Binangonan, Manila",14.4664,121.191
LTFRB_3287,3,"Osmena, Binangonan, Manila",14.4695,121.19
LTFRB_737,3,"Quirino Highway, Quezon City",14.7246,121.041
LTFRB_3176,3,"Pasig Blvd, Pasig City, Manila",14.5658,121.066
LTFRB_734,3,"Geronimo, Quezon City",14.7207,121.042
LTFRB_3164,3,"Reliance St, Mandaluyong City, Manila",14.5724,121.055
LTFRB_3321,3,"Manila East Rd, Binangonan, Manila",14.5174,121.159
LTFRB_3155,3,"Dr Jose P. Rizal Extension / 21st Ave Intersection, Makati City, Manila",14.5526,121.063
LTFRB_3154,3,"Dr Jose P. Rizal Extension / 16th Ave Intersection, Makati City, Manila",14.554,121.064
LTFRB_3322,3,"Manila East Rd, Binangonan, Manila",14.5191,121.158
LTFRB_3248,3,"Caruncho Ave, Pasig City, Manila",14.5603,121.082
LTFRB_3246,3,"Balderama, Pasig City, Manila",14.559,121.085
LTFRB_3149,3,"Dr Jose P. Rizal Extension, Makati City, Manila",14.5601,121.064
LTFRB_3186,3,"Meralco Ave, Pasig City, Manila",14.5793,121.064
LTFRB_767,3,"Makabud, Calcoocan City",14.7502,121.079
LTFRB_3200,3,"Ortigas Ave, Pasig City, Manila",14.5898,121.078
LTFRB_3207,3,"Eulogio Rodriguez Jr Ave,  Pasig City, Manila",14.58,121.075
LTFRB_319,3,"7 Eleven, 4th Avenue West Intersection, Caloocan City",14.6433,120.98
LTFRB_3187,3,"Meralco Ave, Pasig City, Manila",14.577,121.063
LTFRB_3208,3,"Eulogio Rodriguez Jr Ave / Doña Julia Vargas Ave Intersection, Pasig City, Manila",14.5827,121.077
LTFRB_757,3,"Crispulo Street / Quirino Highway Intersection, Calcoocan City",14.7582,121.086
LTFRB_3244,3,"Caruncho Ave, Pasig City, Manila",14.5584,121.082
LTFRB_755,3,"Quirino Highway, Calcoocan City",14.7614,121.087
LTFRB_3216,3,"F.Manalo / Gen. A Luna St Intersection, Taguig City, Manila",14.5273,121.075
LTFRB_3234,3,"Elizco Rd, Pateros, Manila",14.5513,121.075
LTFRB_3241,3,"Caruncho Ave / F. Manalo Intersection, Pasig City, Manila",14.5591,121.081
LTFRB_3180,3,"Pasig Blvd / C-5 Intersection , Pasig City, Manila",14.563,121.069
LTFRB_318,3,"P. Sevilla Street / 5th Avenue West Intersection, Caloocan City",14.6446,120.98
LTFRB_3152,3,"Dr Jose P. Rizal Extension / 7th Ave Intersection, Makati City, Manila",14.5563,121.065
LTFRB_3148,3,"Dr Jose P. Rizal Extension / G.L Jaena Intersection, Makati City, Manila",14.5607,121.063
LTFRB_1999,3,"Kakarong / J.P. Rizal Ave Intersection, Makati City, Manila",14.5714,121.018
LTFRB_3122,3,"Maranatha Christian Academy, Sgt. Fabian Yabut Circle, Makati City, Manila",14.5633,121.046
LTFRB_3382,3,"Manila Road East, Taytay, Manila",14.5456,121.143
LTFRB_3127,3,"Manggahan / Ramon Magsaysay Ave Intersection, Makati City, Manila",14.5641,121.045
LTFRB_3126,3,"Nuestra Sra. De Guadalupe / Nuestra Sra. De Antipolo Intersection , Makati City, Manila",14.5626,121.046
LTFRB_3384,3,"Manila Road East, Taytay, Manila",14.5497,121.14
LTFRB_3123,3,"Sgt. Fabian Yabut Circle, Makati City, Manila",14.5618,121.046
LTFRB_3387,3,"Manila Road East, Taytay, Manila",14.5564,121.137
LTFRB_3389,3,"Rizal Avenue, Taytay, Manila",14.5611,121.135
LTFRB_3375,3,"Ortigas Ave, Pasig City, Manila",14.5856,121.088
LTFRB_339,3,"North Bay Boulevard / Rodriguez Intersection, Tondo",14.6299,120.965
LTFRB_3121,3,"Sgt. Fabian Yabut Circle / P.Burgos Intersection, Makati City, Manila",14.5652,121.046
LTFRB_312,3,"C. Cordero Street / 4th Avenue West Intersection, Caloocan City",14.6433,120.981
LTFRB_3116,3,"38th St, Taguig City, Manila",14.5582,121.057
LTFRB_77,3,"Jolibee, MacArthur Highway, Malinta, Valenzuela City",14.6929,120.964
LTFRB_3114,3,"Kalayaan Ave, Makati City, Manila",14.5577,121.062
LTFRB_3380,3,"Manila Road East, Taytay, Manila",14.542,121.146
LTFRB_3130,3,"P.Burgos, Makati City, Manila",14.5654,121.046
LTFRB_3147,3,"E. Jacinto, Dr Jose P. Rizal Extension, Makati City, Manila",14.5617,121.062
LTFRB_3333,3,"Manila East Rd, Angono, Manila",14.5312,121.155
LTFRB_3323,3,"Quezon Ave, Angono, Manila",14.5213,121.155
LTFRB_3146,3,"Dr Jose P. Rizal Extension / T. Alonzo St Intersection, Makati City, Manila",14.5627,121.06
LTFRB_3144,3,"University of Makati Track and Oval Field, Dr Jose P. Rizal Extension, Makati City, Manila",14.5641,121.057
LTFRB_3143,3,"University of Makati, Dr Jose P. Rizal Extension, Makati City, Manila",14.5643,121.056
LTFRB_3140,3,"San Jose Street, Makati City, Manila",14.5649,121.048
LTFRB_3139,3,"San Jose Street, Makati City, Manila",14.5661,121.047
LTFRB_3334,3,"Manila East Rd / Quezon, Angono, Manila",14.5327,121.152
LTFRB_3373,3,"GSIS Rd, Pasig City, Manila",14.5896,121.091
LTFRB_3137,3,"Dr Jose P. Rizal Extension / Lawton Ave Intersection, Makati City, Manila",14.5647,121.054
LTFRB_3345,3,"Velasquez St, Taytay, Manila",14.5391,121.134
LTFRB_3349,3,"Eastgate Ave, Taytay, Manila",14.5431,121.128
LTFRB_3355,3,"E Bank Rd, Taytay, Manila",14.5517,121.119
LTFRB_3370,3,"E Bank Rd / SE Approach Intersection, Pasig City, Manila",14.5872,121.094
LTFRB_3371,3,"E Bank Rd, Pasig City, Manila",14.5893,121.094
LTFRB_3576,3,"P. Oliveros St, Antipolo City, Manila",14.5878,121.174
LTFRB_359,3,"Flexo Manufacturing Company, A. Mabini Avenue, Caloocan City",14.6458,120.974
LTFRB_3616,3,"Sumulong Hwy, Antipolo City, Manila",14.6248,121.125
LTFRB_2686,3,"Marcos Alvarez Ave, Las Piñas City, Manila",14.422,120.997
LTFRB_2697,3,"GSIS Rd, Bacoor City, Manila",14.4048,120.985
LTFRB_2695,3,"Alvarez Extension / Magdiwang Rd Intersection, Las Piñas City, Manila",14.4056,120.991
LTFRB_3862,3,"Lawaan St / C.M. Recto St Intersection, Marikina City, Manila",14.663,121.119
LTFRB_2693,3,"Alvarez Extension, Las Piñas City, Manila",14.4112,120.991
LTFRB_2692,3,"Alvarez Extension, Las Piñas City, Manila",14.4139,120.991
LTFRB_3865,3,"C.M. Recto St, Marikina City, Manila",14.6625,121.121
LTFRB_2679,3,"Colegio de Sta. Monica, Marcos Alvarez Ave, Las Piñas City Manila",14.4344,121.005
LTFRB_800,3,"Ascencion Avenue / Bristol Street Intersection, Quezon City",14.7215,121.067
LTFRB_2675,3,"Alabang-Zapote Road / Fruto Santos Ave Intersection, Las Piñas City, Manila",14.4637,120.969
LTFRB_3867,3,"Precision Foundry of the Philippines, Marikina City, Manila",14.6635,121.125
LTFRB_2672,3,"Alabang-Zapote Road, Las Piñas City, Manila",14.4571,120.971
LTFRB_2671,3,"Alabang-Zapote Road, Las Piñas City, Manila",14.455,120.973
LTFRB_2656,3,"Alabang-Zapote Road, Las Piñas City, Manila",14.4371,121.006
LTFRB_3881,3,"Eulogio Rodriguez Jr. Ave, Quezon City, Manila",14.5947,121.08
LTFRB_270,3,"Caloocan City Police Station, Samson Road, Malabon City",14.6581,120.971
LTFRB_3857,3,"Gen. B. G. Molina St, Marikina City, Manila",14.6582,121.11
LTFRB_3882,3,"The Gallery Building, Quezon City, Manila",14.592,121.08
LTFRB_382,3,"Radial Road 10 / Moriones Intersection, Manila",14.6096,120.961
LTFRB_3809,3,"Sumulong Hwy, Antipolo City, Manila",14.6261,121.124
LTFRB_3810,3,"Mayor Gil Fernando Ave, Marikina City, Manila",14.6371,121.102
LTFRB_3817,3,"Daang Bakal / C. A. Santos St Intersection, Marikina City, Manila",14.6403,121.098
LTFRB_3818,3,"E Rodriguez Ave / E Mendoza St Intersection, Marikina City, Manila",14.6402,121.099
LTFRB_273,3,"Letre Road, Malabon City",14.6591,120.965
LTFRB_3819,3,"V. Santos St / E dela Paz St Intersection, Marikina City, Manila",14.6365,121.096
LTFRB_2718,3,"South Luzon Expressway, Muntinlupa City, Manila",14.3843,121.04
LTFRB_67,3,"MacArthur Highway / Santiago Road Interchange, Dalandanan, Valenzuela City",14.7093,120.96
LTFRB_2715,3,"Estanislao St / South Luzon Expressway Intersection, Muntinlupa City, Manila",14.3956,121.039
LTFRB_2711,3,"Starmall Footbridge, Starmall Starmall Service Rd, Muntinlupa City, Manila",14.417,121.045
LTFRB_3827,3,"E Rodriguez Ave / Bayan-Bayanan Avenue Intersection, Marikina City, Manila",14.6509,121.104
LTFRB_2710,3,"South Luzon Expressway, Muntinlupa City, Manila",14.4147,121.045
LTFRB_3835,3,"Gen. B. G. Molina, Marikina City, Manila",14.6573,121.108
LTFRB_670,3,"North Luzon Expressway, City of Meycauayan",14.7456,120.973
LTFRB_2644,3,"Alabang-Zapote Road, Muntinlupa City, Manila",14.425,121.031
LTFRB_3888,3,"Eulogio Rodriguez Jr. Ave / Danny Flo St, Pasig City, Manila",14.5696,121.071
LTFRB_3798,3,"Mayor Gil Fernando Ave, Marikina City, Manila",14.6236,121.102
LTFRB_2581,3,"Paliparan Rd, Lungsod ng Dasmariñas, Manila",14.3458,120.982
LTFRB_805,3,"Bristol Street, Quezon City",14.7201,121.063
LTFRB_2608,3,"Fatima Road, Lungsod ng Dasmariñas, Manila",14.3182,120.97
LTFRB_641,3,"Bagabaguin Road, Caloocan City",14.7108,120.996
LTFRB_2597,3,"Dlshsi College of Medicine, Congressional Rd, Lungsod ng Dasmariñas, Manila",14.3268,120.944
LTFRB_4146,3,"North Luzon Expressway, Marilao, Manila",14.7741,120.957
LTFRB_416,3,"Quirino Highway, City of San Jose del Monte",14.8405,121.079
LTFRB_4165,3,"North Luzon Expressway, Marilao, Manila",14.7986,120.944
LTFRB_2614,3,"South Luzon Expressway / E Service Rd Intersection, Muntinlupa City, Manila",14.4485,121.045
LTFRB_256,3,"United Evangelical Church of Malabon, Gov. W. Pascual Avenue, Malabon City",14.6673,120.979
LTFRB_4194,3,"Robinsons Nova Supermarket, Quirino Highway, Caloocan City, Manila",14.7368,121.057
LTFRB_2553,3,"Molino Rd, Bacoor City, Manila",14.3989,120.978
LTFRB_2550,3,"Molino Rd, Bacoor City, Manila",14.4039,120.977
LTFRB_2549,3,"Mariche Apartelle, Mariche Apartelle",14.4061,120.978
LTFRB_2545,3,"Molino Rd, Bacoor City, Manila",14.412,120.975
LTFRB_2613,3,"South Luzon Expressway, Muntinlupa City, Manila",14.452,121.045
LTFRB_642,3,"Bagabaguin Road, Caloocan City",14.7094,120.994
LTFRB_389,3,"Moriones, Manila",14.6099,120.965
LTFRB_401,3,"Union Bank of Philippines, Juan Luca, Manila",14.6065,120.97
LTFRB_3909,3,"Santa Maria Bypass Rd, Santa Maria, Manila",14.8361,120.976
LTFRB_394,3,"Iglesia Ni Cristo, Juan Luma, Manila",14.6106,120.969
LTFRB_665,3,"North Luzon Expressway, City of Meycauayan",14.74,120.976
LTFRB_4,3,"Ultra Mega Market, MacArthur Highway Balagtas",14.821,120.903
LTFRB_2632,3,"Manuel L. Quezon, Muntinlupa City, Manila",14.4504,121.051
LTFRB_4005,3,"Sapang Palay Proper Elementary School, City of San Jose del Monte, Manila",14.8391,121.043
LTFRB_2620,3,"South Luzon Expressway, Muntinlupa City, Manila",14.4264,121.045
LTFRB_413,3,"Quirino Highway, City of San Jose del Monte",14.8477,121.081
LTFRB_4059,3,"Dr Eduardo V. Roquero Sr. Av / Unnamed Road, City of San Jose del Monte, Manila",14.8544,121.056
LTFRB_4062,3,"Matiyaga St, City of San Jose del Monte, Manila",14.8569,121.058
LTFRB_2617,3,"South Luzon Expressway, Muntinlupa City, Manila",14.4383,121.045
LTFRB_4076,3,"Bulacan Standard Academy, City of San Jose del Monte, Manila",14.8143,121.045
LTFRB_4077,3,"City of San Jose Del Monte Central School, City of San Jose del Monte, Manila",14.8118,121.047
LTFRB_4078,3,"Unnamed Rd / San Jose del Monte - Marilao Rd, City of San Jose del Monte, Manila",14.8099,121.048
LTFRB_3800,3,"Sumulong Hwy, Marikina City, Manila",14.6339,121.107
LTFRB_3796,3,"Mayor Gil Fernando Ave, Marikina City, Manila",14.6287,121.102
LTFRB_3636,3,"Marcos Hwy, Antipolo City, Manila",14.6223,121.187
LTFRB_286,3,"M. Naval / Tanganahan Intersection, Malabon City",14.6511,120.951
LTFRB_2877,3,"National Hwy, Muntinlupa City, Manila",14.4065,121.047
LTFRB_287,3,"M. Naval, Malabon City",14.6537,120.949
LTFRB_2867,3,"Hall of Justice, National Hwy, Muntinlupa City, Manila",14.386,121.045
LTFRB_3715,3,"Felix Ave, Cainta, Manila",14.6147,121.102
LTFRB_2863,3,"National Hwy, Muntinlupa City, Manila",14.3774,121.047
LTFRB_2860,3,"National Hwy, San Pedro, Manila",14.3703,121.05
LTFRB_3716,3,"Felix Ave / V.V. Soliven Avenue I Intersection, Cainta, Manila",14.6171,121.102
LTFRB_3712,3,"Felix Ave, Cainta, Manila",14.6064,121.105
LTFRB_2854,3,"National Hwy, San Pedro, Manila",14.3574,121.06
LTFRB_3717,3,"Felix Ave, Cainta, Manila",14.6197,121.102
LTFRB_2850,3,"National Hwy, San Pedro, Manila",14.3489,121.065
LTFRB_372,3,"St Joseph School, Juan Luma / Pampanga, Manila",14.6288,120.974
LTFRB_373,3,"Torres High School, Juan Luma, Manila",14.6275,120.974
LTFRB_374,3,"Gagalangin Fire Station, Juan Luma, Manila",14.6253,120.973
LTFRB_2879,3,"National Hwy / Visayas St Intersection, Muntinlupa City, Manila",14.4108,121.046
LTFRB_3710,3,"Felix Ave, Cainta, Manila",14.6023,121.106
LTFRB_3740,3,"J. P. Rizal St / Spain Street Intersection, Marikina City, Manila",14.6629,121.106
LTFRB_3690,3,"Marcos Hwy, Antipolo City, Manila",14.6203,121.1
LTFRB_3640,3,"68 St / Marcos Hwy Intersection, Antipolo City, Manila",14.6226,121.179
LTFRB_788,3,"Quirino Highway / La Mesa Road Intersection, Calcoocan City",14.7366,121.071
LTFRB_3646,3,"Marcos Hwy, Antipolo City, Manila",14.6211,121.168
LTFRB_2899,3,"DBP Ave, Taguig City, Manila, Manila",14.5056,121.043
LTFRB_2898,3,"DBP Ave, Taguig City, Manila, Manila",14.505,121.041
LTFRB_2895,3,"E Service Rd, Parañaque City, Manila",14.5006,121.039
LTFRB_3694,3,"Marcos Hwy, Pasig City, Manila",14.6206,121.088
LTFRB_3709,3,"Felix Ave / Vista Verde Avenue Extension 2 Intersection,",14.6003,121.108
LTFRB_3697,3,"Marcos Hwy, Pasig City, Manila",14.6254,121.083
LTFRB_3701,3,"Marcos Hwy / A. Bonifacio Ave Intersection, Pasig City, Manila",14.6319,121.078
LTFRB_2886,3,"South Luzon Expressway, Taguig City, Manila",14.4737,121.045
LTFRB_3703,3,"Felix Ave, Cainta, Manila",14.5882,121.115
LTFRB_3707,3,"Felix Ave, Cainta, Manila",14.5963,121.11
LTFRB_3708,3,"Felix Ave, Cainta, Manila",14.5983,121.109
LTFRB_2839,3,"National Hwy, Biñan City, Manila",14.3283,121.09
LTFRB_283,3,"Circimferential Road 4, Malabon City",14.6542,120.955
LTFRB_3795,3,"Sumulong Hwy, Marikina City, Manila",14.6346,121.105
LTFRB_2758,3,"Governor's Drive, Carmona, Manila",14.3234,121.063
LTFRB_276,3,"Franco Clinic and Hospital, Letre Road, Malabon City",14.6599,120.96
LTFRB_3771,3,"J. P. Rizal St, Marikina City, Manila",14.6239,121.096
LTFRB_3776,3,"E dela Paz St, Marikina City, Manila",14.6262,121.098
LTFRB_3779,3,"W Paz, Marikina City, Manila",14.6327,121.096
LTFRB_378,3,"F. Benitez Elementary School, Juan Luma, Caloocan City",14.6264,120.973
LTFRB_3781,3,"Shoe Ave, Marikina City, Manila",14.6308,121.098
LTFRB_3790,3,"Jacamar, Marikina City, Manila",14.6338,121.1
LTFRB_2764,3,"Governor's Drive, Carmona, Manila",14.314,121.05
LTFRB_682,3,"Maycauayan Camalig, City of Meycauayan",14.7648,120.989
LTFRB_792,3,"Ascencion Avenue / Caridad Intersection, Quezon City",14.7334,121.067
LTFRB_2751,3,"General Malvar St, Biñan City, Manila",14.3325,121.081
LTFRB_275,3,"Letre Road / Dagat- Dagatan Avenue, Malabon City",14.6595,120.962
LTFRB_2746,3,"Mamplasan overpass / South Luzon Expressway, Biñan City, Manila",14.3033,121.078
LTFRB_2743,3,"South Luzon Expressway, Biñan City, Manila",14.297,121.083
LTFRB_3770,3,"J. P. Rizal St, Marikina City, Manila",14.6234,121.094
LTFRB_2766,3,"Governor's Drive, Carmona, Manila",14.3117,121.043
LTFRB_3741,3,"J. P. Rizal St, Marikina City, Manila",14.6607,121.105
LTFRB_3753,3,"J. P. Rizal St, Marikina City, Manila",14.6374,121.094
LTFRB_3744,3,"J. P. Rizal St, Marikina City, Manila",14.6546,121.103
LTFRB_375,3,"Manila Faith Assembly of God, Juan Luma, Manila",14.6221,120.972
LTFRB_2821,3,"South Luzon Expressway, Biñan City, Manila",14.3232,121.061
LTFRB_3751,3,"J. P. Rizal St / Teodula Dr Intersection, Marikina City, Manila",14.642,121.094
LTFRB_2819,3,South Luzon Expressway / Magsaysay Rd,14.3663,121.043
LTFRB_2812,3,"Rizal St / National Highway Intersection, Muntinlupa City, Manila",14.3892,121.045
LTFRB_2810,3,"Rizal St, Muntinlupa City, Manila",14.3884,121.041
LTFRB_277,3,"Letre Road / Sanciangco Street, Malabon City",14.6603,120.957
LTFRB_281,3,"Circimferential Road 4, Malabon City",14.6565,120.959
LTFRB_790,3,"Polytechnic School, Quirino Highway, Quezon City",14.7354,121.066
LTFRB_3755,3,"J. P. Rizal St, Marikina City, Manila",14.6332,121.095
LTFRB_28,3,"Marilao Public Market, MacArthur Highway, Marilao",14.7615,120.949
LTFRB_3769,3,"A. Bonifacio Ave, Marikina City, Manila",14.6322,121.08
LTFRB_278,3,"J. P Rizal Avenue, Malabon City",14.6593,120.954
LTFRB_2,3,"STI College, MacArthur Highway, Balagtas",14.8229,120.901
LTFRB_2856,3,"BBL Trans San Pedro Terminal, National Hwy, San Pedro, Manila",14.3618,121.057
LTFRB_1798,3,"F. Jhocson, Manila",14.6055,120.995
LTFRB_1214,3,"General Avenue / Assistant Branchesntersection, Quezon City",14.6731,121.025
LTFRB_1283,3,"Del Monte Avenue / Roosevelt Avenue Intersection, Quezon City",14.6404,121.016
LTFRB_1732,3,Antonio Arnaiz Ave / F.B. Harrison St Intersection,14.5462,120.994
LTFRB_1853,3,"Victorio Mapa Blvd, Manila",14.5959,121.02
LTFRB_1154,3,"Epifanio de los Santos Avenue / 8th Street Intersection , Caloocan City",14.6572,120.99
LTFRB_1855,3,"Valenzuela, Manila",14.598,121.015
LTFRB_1729,3,"Taft Ave, Lungsod ng Pasay",14.5577,120.996
LTFRB_1856,3,"Cordillera, Manila",14.5963,121.015
LTFRB_1555,3,"Jose Abad Santos Ave / Bambang Intersection., Manila",14.6125,120.976
LTFRB_102,3,"Monumento, Rizal Avenue, Caloocan City",14.6564,120.984
LTFRB_1411,3,"Andres Bonifacio / Lunas Intersection, Quezon City",14.6319,120.992
LTFRB_141,3,"San Diego de Alcala Parish, Palassan Road, Kapitan Viilila, Valenzuela City",14.7078,120.946
LTFRB_1018,3,"Visayas Avenue / Road 1 Intersection, Quezon City",14.6616,121.044
LTFRB_1017,3,"Visayas Avenue / Road 1 Intersection, Quezon City",14.6597,121.045
LTFRB_1726,3,"Dominga St, Lungsod ng Pasay",14.5572,120.998
LTFRB_1861,3,"P. Sanchez St, Manila",14.5942,121.026
LTFRB_1015,3,"Dept. of Env & Natural Resources, Visayas Ave, Quezon City",14.6557,121.047
LTFRB_966,3,"Civil Service Commision, IBP Road, Quezon City",14.6929,121.096
LTFRB_1554,3,"Jose Abad Santos Ave., Manila",14.6106,120.976
LTFRB_1206,3,"Tanding Sora Avenue, Quezon City",14.6795,121.023
LTFRB_1852,3,"Pinaglabanan, San Juan, Manila",14.6054,121.028
LTFRB_1281,3,"Del Monte Avenue / Valencia Intersection, Quezon City",14.64,121.014
LTFRB_1136,3,"North Luzon Expressway, Caloocan City",14.6682,121.0
LTFRB_1044,3,"Quirino Highway, Quezon City",14.7151,121.04
LTFRB_1137,3,"North Luzon Expressway, Caloocan City",14.6663,121.0
LTFRB_1448,3,"Jose Abad Santos Avenue / T Bugallon Street Intersection, Quezon City",14.6257,120.979
LTFRB_1447,3,"Jose Abad Santos Avenue, Quezon City",14.6275,120.979
LTFRB_1039,3,"Congressional Avenue Extension, Quezon City",14.6729,121.048
LTFRB_1445,3,"Jose Abad Santos Avenue / Morong Intersection, Quezon City",14.6304,120.98
LTFRB_1840,3,"S.Veloso / Aurora Blvd Intersection, San Juan",14.6102,121.024
LTFRB_1029,3,"Tandang Sora, Quezon City",14.6725,121.05
LTFRB_1210,3,"St James College, Tanding Sora Avenue, Quezon City",14.6775,121.031
LTFRB_1208,3,"Jetti Petrol Station, Tanding Sora Avenue, Quezon City",14.6788,121.027
LTFRB_1435,3,"New Antipolo / Leonor Rivera Intersection, Quezon City",14.6226,120.987
LTFRB_989,3,"Commonwealth Avenue, Quezon City",14.6961,121.087
LTFRB_1431,3,"Pampanga / Light Rail Transit Line, Quezon City",14.628,120.984
LTFRB_1850,3,"N.Domingo,  San Juan, Manila",14.6068,121.025
LTFRB_99,3,"MacArthur Highway / Lazones Intersection, Malabon City",14.6617,120.984
LTFRB_1013,3,"Bureau of Soil And Water Management, Elliptical Rd, Quezon City",14.6535,121.047
LTFRB_1403,3,"Quezon Avenue, Quezon City",14.6497,121.046
LTFRB_1011,3,"Elliptical Rd / Commonwealth Avenue Intersection, Quezon City",14.6527,121.052
LTFRB_1382,3,"Quezon Avenue, Quezon City",14.6346,121.022
LTFRB_1888,3,"Jesus, Manila",14.5929,121.004
LTFRB_1889,3,"Palumpong / Beata Intersection, Manila",14.5908,121.006
LTFRB_1891,3,"Lorenzo Dela Paz / Baretto Intersection, Manila",14.5907,121.011
LTFRB_1584,3,"Dagupan, Manila",14.6083,120.972
LTFRB_1893,3,"Robinson's Place - Otis, Manila",14.5872,120.995
LTFRB_1585,3,"Dagupan, Manila",14.607,120.972
LTFRB_1385,3,"St Vincent School, West Avenue / Catanduanes Intersection Quezon City",14.6496,121.029
LTFRB_1588,3,"Claro M. Recto Ave / Ylaya Intersection, Manila",14.6052,120.97
LTFRB_1198,3,"Chowking, Quirino Highway, Quezon City",14.6805,121.019
LTFRB_1380,3,"Philipine Maritime Institute, Roosevelt Avenue, Quezon City",14.6339,121.018
LTFRB_1591,3,"Del Pan Flyover, Manila",14.5999,120.965
LTFRB_1715,3,"Sinciego / F.B. Harrison St Intersection, Lungsod ng Pasay, Makati City",14.5567,120.991
LTFRB_1902,3,"Julio Nakpil, Manila",14.5756,120.993
LTFRB_1294,3,"Del Monte Avenue / Don Ramon Intersection, Quezon City",14.6393,121.008
LTFRB_1598,3,"Reina Regente / Dadivas Intersection, Manila",14.6028,120.974
LTFRB_1906,3,"Revellin, Manila",14.5772,121.011
LTFRB_1722,3,"M.Santos / F.B. Harrison St Intersection, Lungsod ng Pasay",14.5504,120.993
LTFRB_960,3,"Batasan - San Mateo, Quezon City",14.6851,121.103
LTFRB_1009,3,"Commonwealth Avenue / University Avenue Intersection, Quezon City",14.6547,121.055
LTFRB_1000,3,"General Hospital, Commonwealth Avenue, Quezon City",14.6671,121.073
LTFRB_1558,3,"Narra / Padre Algue Street Intersection, Manila",14.6083,120.975
LTFRB_1399,3,"Quezon Avenue / BIR Road Intersection, Quezon City",14.6462,121.041
LTFRB_1398,3,"Quezon Avenue / Sgt. Esguerra Intersection, Quezon City",14.6449,121.038
LTFRB_1725,3,"Burgos Street, Lungsod ng Pasay",14.5538,120.999
LTFRB_1003,3,"St Peter Chapels, Commonwealth Avenue, Quezon City",14.6631,121.067
LTFRB_1002,3,"Commonwealth Avenue, Quezon City",14.6647,121.07
LTFRB_963,3,"Batasan - San Mateo, Quezon City",14.6891,121.098
LTFRB_1873,3,"Pedro Gil / Fabie Intersection, Manila",14.5787,121.0
LTFRB_961,3,"Batasan - San Mateo / Kagawad Intersection, Quezon City",14.6865,121.101
LTFRB_1874,3,"Pedro Gil / Union Intersection, Manila",14.5788,120.997
LTFRB_1565,3,"Quiricada / Antonio Rivera Intersection, Manila",14.6139,120.977
LTFRB_100,3,"Floresco North Mortuary, MacArthur Highway, Caloocan City",14.6601,120.984
LTFRB_908,3,"Montalban Highway / D. Marcelo Street Intersection near Montalban Town Centre, Rodriguez",14.7298,121.14
LTFRB_1568,3,"T. Mapua, Manila",14.6084,120.981
LTFRB_1570,3,"T. Mapua, Manila",14.6056,120.981
LTFRB_1881,3,"San Gregorio / Paz St, Manila",14.5814,120.995
LTFRB_1280,3,"Del Monte Avenue / Malac Intersection, Quezon City",14.6398,121.012
LTFRB_987,3,"Commonwealth Avenue / Kalayaan A Intersection, Quezon City",14.6913,121.087
LTFRB_1911,3,"Zobel Roxas Ave / Madre Perla Intersection, Manila",14.567,121.004
LTFRB_1133,3,"North Luzon Expressway near Libis Baesa Exit, Caloocan City",14.6737,121.001
LTFRB_1536,3,"San Lazaro / Oroquieta Intersection, Manila",14.6143,120.984
LTFRB_1537,3,"Oroquieta / Alvarez Intersection, Manila",14.6121,120.983
LTFRB_1501,3,"Espana Boulevard / Ruperto. S. Crsitobal Streett Intersection, Manila",14.6123,120.996
LTFRB_1500,3,"Espana Boulevard / Gen. E. Quintos Street Intersection, Manila",14.6136,120.997
LTFRB_1238,3,"Epifanio de los Santos Avenue, Quezon City",14.6575,121.014
LTFRB_15,3,"Sto. Nino Academy, MacArthur Highway, Bocaue, Bulacan",14.7961,120.93
LTFRB_1236,3,"Epifanio de los Santos Avenue, Quezon City",14.6575,121.018
LTFRB_1078,3,"Veterans Memorial Medical Centre, North Avenue, Quezon City",14.6537,121.039
LTFRB_127,3,"Antonio's Convenience Store, Governor Fortunato Halili Avenue, Santa Maria",14.8174,120.958
LTFRB_1233,3,Congressional Avenue / Cagayan Intersection Quezon City,14.6607,121.02
LTFRB_1107,3,"Ambuklao, Quezon City",14.6839,121.047
LTFRB_1758,3,"Celeridad / P.Zamora, Lungsod ng Pasay",14.5443,121.001
LTFRB_93,3,"Bearsea Auto Supply, MacArthur Highway, Valenzuela City",14.6749,120.981
LTFRB_1799,3,"G. Tuazon, Manila",14.6034,120.997
LTFRB_111,3,"Rizal Avenue / Road 1 Intersection, Caloocan City",14.6374,120.983
LTFRB_968,3,"IBP Road / Palma Intersection, Quezon City",14.6958,121.095
LTFRB_1228,3,"Congressional Avenue, Quezon City",14.6658,121.031
LTFRB_1512,3,"Gen. Concepcion / Laong Laan Intersection, Manila",14.613,120.988
LTFRB_1535,3,"Felix Huertas, Manila",14.6147,120.985
LTFRB_921,3,"Montalban Church, Daang Hari Streeet Intersection, Rodriguez",14.7295,121.144
LTFRB_1786,3,"Ayala Blvd, Manila",14.5882,120.984
LTFRB_1527,3,"Lope De Vega / Oroquieta Intersection, Manila",14.6067,120.983
LTFRB_1531,3,"Sulu, Manila",14.6076,120.984
LTFRB_1779,3,"R Hidalgo, Manila",14.5982,120.986
LTFRB_1096,3,"Life Value Clinic, Congressional Avenue, Quezon City",14.6768,121.034
LTFRB_1776,3,"Carlos Palanca Sr, Manila",14.5949,120.984
LTFRB_1783,3,"Quezon Blvd, Manila",14.6014,120.985
LTFRB_1785,3,"Ayala Blvd, Manila",14.5903,120.986
LTFRB_1247,3,"Dangay / Bansalangin Intersection, Quezon City",14.6558,121.024
LTFRB_110,3,"Baliwag Transit Bus Station, Rizal Avenue, Caloocan City",14.64,120.984
LTFRB_922,3,"Gen. A Luna, Rodriguez",14.7279,121.144
LTFRB_1770,3,"Manuel Quezon University, R Hidalgo, Manila",14.5999,120.988
LTFRB_1520,3,"P.Paredes / España Blvd Intersection, Manila",14.6063,120.987
LTFRB_177,3,"F. Navarette Street / M.H Del Pilar Intersection,  Malabon City",14.6979,120.953
LTFRB_1242,3,"Epifanio de los Santos Avenue / Bansalangin Intersection, Quezon City",14.6561,121.027
LTFRB_1516,3,"P. Noval / Delos Reyes Intersection, Manila",14.6078,120.988
LTFRB_1240,3,"FHELSEN, Epifanio de los Santos Avenue, Quezon City",14.657,121.023
LTFRB_1545,3,"Bambang / S.Reyes Intersection, Manila",14.611,120.981
LTFRB_1751,3,"Tengco, Lungsod ng Pasay",14.5466,121.001
LTFRB_1750,3,"P. Villanueva, Lungsod ng Pasay",14.5473,120.998
LTFRB_1472,3,"Department of Health, Razal Avenue, Manila",14.6156,120.983
LTFRB_1483,3,"Nicanor Roxas / Blumentritt  Intersection, Manila",14.6208,120.996
LTFRB_1059,3,"Mindanao Avenue, Quezon City",14.6866,121.032
LTFRB_1058,3,"Pacific Global Hospital, Mindanao Avenue, Quezon City",14.6888,121.03
LTFRB_983,3,"Batasan Road / Kalinisan Intersection, Quezon City",14.687,121.092
LTFRB_1057,3,"Quirino Highway / Mindanao Avenue Intersection, Quezon City",14.6903,121.028
LTFRB_122,3,"Green Pond Chinese Resturant, Governor Fortunato Halili Avenue, Bocaue",14.8116,120.948
LTFRB_1473,3,"Felix Heuertas, Manila",14.62,120.985
LTFRB_1125,3,"North Luzon Expressway, Valenzuela City",14.6891,121.001
LTFRB_1068,3,"Mindanao Avenue, Quezon City",14.6669,121.035
LTFRB_1824,3,"A Santol / Sociego Intersection, Manila",14.604,121.014
LTFRB_1458,3,"Jose Abad Santos Avenue, Quezon City",14.6187,120.978
LTFRB_1734,3,"F.B. Harrison St, Lungsod ng Pasay",14.5418,120.995
LTFRB_1132,3,"North Luzon Expressway, Caloocan City",14.6758,121.001
LTFRB_1455,3,"Jose Abad Santos Avenue, Quezon City",14.6233,120.978
LTFRB_1049,3,"St John of Beverly, Quirino Highway, Quezon City",14.7058,121.038
LTFRB_1832,3,"Aurora Blvd, Quezon City",14.6058,121.019
LTFRB_1064,3,"Mindanao Avenue, Quezon City",14.6747,121.032
LTFRB_1740,3,"Jose Diokno Blvd, Lungsod ng Pasay",14.5372,120.984
LTFRB_1279,3,"Del Monte Avenue / Corumi Intersection, Quezon City",14.6396,121.01
LTFRB_1120,3,"North Luzon Expressway, Valenzuela City",14.6995,120.998
LTFRB_1075,3,"Mindanao Avenue, Quezon City",14.6557,121.035
LTFRB_175,3,"Flamengco Street / F. Navarette Street Intersection, Malabon City",14.6948,120.95
LTFRB_1749,3,"Leveriza, Lungsod ng Pasay",14.5492,120.996
LTFRB_1803,3,"F. Cayco, Manila",14.6074,120.993
LTFRB_1118,3,"North Luzon Expressway, Valenzuela City",14.7033,120.996
